{
  "mnt_id": 65,
  "mnt_name": "월악산",
  "course_id": 180,
  "max_ele": 1092.802,
  "total_length_km": "8.1km",
  "total_time": "1시간 41분",
  "start_name": "덕주사 입구 주차장",
  "end_name": "송계계곡",
  "level": "상",
  "course_name": "극한오름 코스",
  "min_ele": 232.591,
  "track": [
    {
      "path_id": 0,
      "path": [
        {
          "lat": 36.864655,
          "lng": 128.088074,
          "ele": 232.591
        },
        {
          "lat": 36.864349,
          "lng": 128.087662,
          "ele": 238.977
        }
      ],
      "color": "#b6abb9",
      "start_name": "덕주사 입구 주차장 / 덕주골화장실 / 야영장 / 덕주골 정류소",
      "end_name": "교통",
      "length_meter": 84.6,
      "time_minute": 1
    },
    {
      "path_id": 1,
      "path": [
        {
          "lat": 36.864349,
          "lng": 128.087662,
          "ele": 238.977
        },
        {
          "lat": 36.864601,
          "lng": 128.088272,
          "ele": 237.613
        }
      ],
      "color": "#548fb8",
      "start_name": "교통 / 버스시간표 / 안내소",
      "end_name": "웨이포인트 8",
      "length_meter": 61.9,
      "time_minute": 1
    },
    {
      "path_id": 2,
      "path": [
        {
          "lat": 36.864601,
          "lng": 128.088272,
          "ele": 237.613
        },
        {
          "lat": 36.864388,
          "lng": 128.087875,
          "ele": 238.515
        }
      ],
      "color": "#28335a",
      "start_name": "웨이포인트 8",
      "end_name": "식당",
      "length_meter": 42.5,
      "time_minute": 0
    },
    {
      "path_id": 3,
      "path": [
        {
          "lat": 36.864388,
          "lng": 128.087875,
          "ele": 238.515
        },
        {
          "lat": 36.863617,
          "lng": 128.087601,
          "ele": 239.506
        }
      ],
      "color": "#7ebb70",
      "start_name": "식당 / 갈림길 / 입구 이정표",
      "end_name": "웨이포인트 12",
      "length_meter": 89.5,
      "time_minute": 1
    },
    {
      "path_id": 4,
      "path": [
        {
          "lat": 36.863617,
          "lng": 128.087601,
          "ele": 239.506
        },
        {
          "lat": 36.862877,
          "lng": 128.088943,
          "ele": 248.023
        }
      ],
      "color": "#187008",
      "start_name": "웨이포인트 12",
      "end_name": "월악산장 식당",
      "length_meter": 145.0,
      "time_minute": 1
    },
    {
      "path_id": 5,
      "path": [
        {
          "lat": 36.862877,
          "lng": 128.088943,
          "ele": 248.023
        },
        {
          "lat": 36.862087,
          "lng": 128.090546,
          "ele": 255.63
        }
      ],
      "color": "#30740a",
      "start_name": "월악산장 식당",
      "end_name": "계곡",
      "length_meter": 167.5,
      "time_minute": 2
    },
    {
      "path_id": 6,
      "path": [
        {
          "lat": 36.862087,
          "lng": 128.090546,
          "ele": 255.63
        },
        {
          "lat": 36.861893,
          "lng": 128.091675,
          "ele": 263.409
        }
      ],
      "color": "#0f314c",
      "start_name": "계곡",
      "end_name": "수경대",
      "length_meter": 102.7,
      "time_minute": 1
    },
    {
      "path_id": 7,
      "path": [
        {
          "lat": 36.861893,
          "lng": 128.091675,
          "ele": 263.409
        },
        {
          "lat": 36.861774,
          "lng": 128.093704,
          "ele": 279.33
        }
      ],
      "color": "#67286b",
      "start_name": "수경대",
      "end_name": "숲속 벤치",
      "length_meter": 181.0,
      "time_minute": 2
    },
    {
      "path_id": 8,
      "path": [
        {
          "lat": 36.861774,
          "lng": 128.093704,
          "ele": 279.33
        },
        {
          "lat": 36.861774,
          "lng": 128.095108,
          "ele": 286.297
        }
      ],
      "color": "#ad5789",
      "start_name": "숲속 벤치 / 월악산의 유래",
      "end_name": "덕주산성 설명",
      "length_meter": 125.1,
      "time_minute": 1
    },
    {
      "path_id": 9,
      "path": [
        {
          "lat": 36.861774,
          "lng": 128.095108,
          "ele": 286.297
        },
        {
          "lat": 36.861584,
          "lng": 128.096344,
          "ele": 295.969
        }
      ],
      "color": "#c24508",
      "start_name": "덕주산성 설명 / 덕주루 / 학소대 / 계곡",
      "end_name": "덕주사 주차장",
      "length_meter": 134.5,
      "time_minute": 2
    },
    {
      "path_id": 10,
      "path": [
        {
          "lat": 36.861584,
          "lng": 128.096344,
          "ele": 295.969
        },
        {
          "lat": 36.861561,
          "lng": 128.097351,
          "ele": 307.849
        }
      ],
      "color": "#28af96",
      "start_name": "덕주사 주차장 / 덕주사",
      "end_name": "입구 이정표",
      "length_meter": 89.7,
      "time_minute": 1
    },
    {
      "path_id": 11,
      "path": [
        {
          "lat": 36.861561,
          "lng": 128.097351,
          "ele": 307.849
        },
        {
          "lat": 36.861645,
          "lng": 128.098053,
          "ele": 313.835
        }
      ],
      "color": "#274824",
      "start_name": "입구 이정표 / 매점 / 관광자원",
      "end_name": "덕주탐방지원센터",
      "length_meter": 67.8,
      "time_minute": 0
    },
    {
      "path_id": 12,
      "path": [
        {
          "lat": 36.861645,
          "lng": 128.098053,
          "ele": 313.835
        },
        {
          "lat": 36.864426,
          "lng": 128.104004,
          "ele": 424.362
        }
      ],
      "color": "#190246",
      "start_name": "덕주탐방지원센터 / 갈림길 / 영봉입구",
      "end_name": "산성",
      "length_meter": 617.3,
      "time_minute": 10
    },
    {
      "path_id": 13,
      "path": [
        {
          "lat": 36.864426,
          "lng": 128.104004,
          "ele": 424.362
        },
        {
          "lat": 36.865479,
          "lng": 128.104446,
          "ele": 443.221
        }
      ],
      "color": "#399661",
      "start_name": "산성",
      "end_name": "웨이포인트 36",
      "length_meter": 123.5,
      "time_minute": 1
    },
    {
      "path_id": 14,
      "path": [
        {
          "lat": 36.865479,
          "lng": 128.104446,
          "ele": 443.221
        },
        {
          "lat": 36.868435,
          "lng": 128.105209,
          "ele": 517.57
        }
      ],
      "color": "#b7c563",
      "start_name": "웨이포인트 36",
      "end_name": "웨이포인트 37",
      "length_meter": 335.6,
      "time_minute": 4
    },
    {
      "path_id": 15,
      "path": [
        {
          "lat": 36.868435,
          "lng": 128.105209,
          "ele": 517.57
        },
        {
          "lat": 36.869072,
          "lng": 128.105194,
          "ele": 532.962
        }
      ],
      "color": "#a2740f",
      "start_name": "웨이포인트 37 / 갈림길",
      "end_name": "마애불",
      "length_meter": 73.0,
      "time_minute": 1
    },
    {
      "path_id": 16,
      "path": [
        {
          "lat": 36.869072,
          "lng": 128.105194,
          "ele": 532.962
        },
        {
          "lat": 36.8703,
          "lng": 128.103348,
          "ele": 639.439
        }
      ],
      "color": "#5906c5",
      "start_name": "마애불 / 갈림길 / 마애불의 역사",
      "end_name": "낙석주의구간",
      "length_meter": 216.1,
      "time_minute": 3
    },
    {
      "path_id": 17,
      "path": [
        {
          "lat": 36.8703,
          "lng": 128.103348,
          "ele": 639.439
        },
        {
          "lat": 36.871975,
          "lng": 128.103531,
          "ele": 722.439
        }
      ],
      "color": "#5abc51",
      "start_name": "낙석주의구간",
      "end_name": "자연경관",
      "length_meter": 187.0,
      "time_minute": 2
    },
    {
      "path_id": 18,
      "path": [
        {
          "lat": 36.871975,
          "lng": 128.103531,
          "ele": 722.439
        },
        {
          "lat": 36.873299,
          "lng": 128.103394,
          "ele": 849.977
        }
      ],
      "color": "#c13f66",
      "start_name": "자연경관",
      "end_name": "쉼터,조망터",
      "length_meter": 147.7,
      "time_minute": 1
    },
    {
      "path_id": 19,
      "path": [
        {
          "lat": 36.873299,
          "lng": 128.103394,
          "ele": 849.977
        },
        {
          "lat": 36.874378,
          "lng": 128.103821,
          "ele": 909.55
        }
      ],
      "color": "#324e15",
      "start_name": "쉼터,조망터 / 월악의 능선 / 자연경관",
      "end_name": "쉼터",
      "length_meter": 134.1,
      "time_minute": 2
    },
    {
      "path_id": 20,
      "path": [
        {
          "lat": 36.874378,
          "lng": 128.103821,
          "ele": 909.55
        },
        {
          "lat": 36.874546,
          "lng": 128.104492,
          "ele": 922.856
        }
      ],
      "color": "#5c061d",
      "start_name": "쉼터 / 자연경관 / 월악산의 암릉",
      "end_name": "구름다리",
      "length_meter": 65.4,
      "time_minute": 1
    },
    {
      "path_id": 21,
      "path": [
        {
          "lat": 36.874546,
          "lng": 128.104492,
          "ele": 922.856
        },
        {
          "lat": 36.875248,
          "lng": 128.10611,
          "ele": 948.907
        }
      ],
      "color": "#1f9f64",
      "start_name": "구름다리 / 웨이포인트 52",
      "end_name": "마애봉",
      "length_meter": 166.1,
      "time_minute": 2
    },
    {
      "path_id": 22,
      "path": [
        {
          "lat": 36.875248,
          "lng": 128.10611,
          "ele": 948.907
        },
        {
          "lat": 36.877121,
          "lng": 128.106354,
          "ele": 933.229
        }
      ],
      "color": "#3ba02b",
      "start_name": "마애봉",
      "end_name": "능선길",
      "length_meter": 209.4,
      "time_minute": 2
    },
    {
      "path_id": 23,
      "path": [
        {
          "lat": 36.877121,
          "lng": 128.106354,
          "ele": 933.229
        },
        {
          "lat": 36.877853,
          "lng": 128.106094,
          "ele": 930.17
        }
      ],
      "color": "#25690b",
      "start_name": "능선길",
      "end_name": "웨이포인트 55",
      "length_meter": 84.6,
      "time_minute": 1
    },
    {
      "path_id": 24,
      "path": [
        {
          "lat": 36.877853,
          "lng": 128.106094,
          "ele": 930.17
        },
        {
          "lat": 36.880508,
          "lng": 128.105072,
          "ele": 938.083
        }
      ],
      "color": "#105204",
      "start_name": "웨이포인트 55",
      "end_name": "헬기장",
      "length_meter": 308.9,
      "time_minute": 3
    },
    {
      "path_id": 25,
      "path": [
        {
          "lat": 36.880508,
          "lng": 128.105072,
          "ele": 938.083
        },
        {
          "lat": 36.881325,
          "lng": 128.10495,
          "ele": 934.853
        }
      ],
      "color": "#56b598",
      "start_name": "헬기장",
      "end_name": "갈림길",
      "length_meter": 91.5,
      "time_minute": 1
    },
    {
      "path_id": 26,
      "path": [
        {
          "lat": 36.881325,
          "lng": 128.10495,
          "ele": 934.853
        },
        {
          "lat": 36.884953,
          "lng": 128.106384,
          "ele": 979.13
        }
      ],
      "color": "#9a3d28",
      "start_name": "갈림길 / 산양 / 송계삼거리 안전쉼터 / 산행리본게시대 / 탐방로안내",
      "end_name": "웨이포인트 63",
      "length_meter": 429.2,
      "time_minute": 7
    },
    {
      "path_id": 27,
      "path": [
        {
          "lat": 36.884953,
          "lng": 128.106384,
          "ele": 979.13
        },
        {
          "lat": 36.885117,
          "lng": 128.106445,
          "ele": 981.902
        }
      ],
      "color": "#1b7c87",
      "start_name": "웨이포인트 63",
      "end_name": "낙석 주의",
      "length_meter": 19.0,
      "time_minute": 0
    },
    {
      "path_id": 28,
      "path": [
        {
          "lat": 36.885117,
          "lng": 128.106445,
          "ele": 981.902
        },
        {
          "lat": 36.886463,
          "lng": 128.108307,
          "ele": 947.509
        }
      ],
      "color": "#9a9915",
      "start_name": "낙석 주의",
      "end_name": "갈림길",
      "length_meter": 223.2,
      "time_minute": 2
    },
    {
      "path_id": 29,
      "path": [
        {
          "lat": 36.886463,
          "lng": 128.108307,
          "ele": 947.509
        },
        {
          "lat": 36.88681,
          "lng": 128.107925,
          "ele": 992.976
        }
      ],
      "color": "#5b3755",
      "start_name": "갈림길 / 철계단 구간,정상까지 800m구간 / 철계단구간",
      "end_name": "자연경관",
      "length_meter": 122.1,
      "time_minute": 1
    },
    {
      "path_id": 30,
      "path": [
        {
          "lat": 36.88681,
          "lng": 128.107925,
          "ele": 992.976
        },
        {
          "lat": 36.886112,
          "lng": 128.105942,
          "ele": 1092.802
        }
      ],
      "color": "#008737",
      "start_name": "자연경관 / 웨이포인트 70",
      "end_name": "정상 쉼터",
      "length_meter": 192.7,
      "time_minute": 3
    },
    {
      "path_id": 31,
      "path": [
        {
          "lat": 36.886112,
          "lng": 128.105942,
          "ele": 1092.802
        },
        {
          "lat": 36.874557,
          "lng": 128.104401,
          "ele": 920.198
        }
      ],
      "color": "#089b1f",
      "start_name": "정상 쉼터 / 월악산 영봉 / 추락,낙석 / 영봉안내",
      "end_name": "영봉",
      "length_meter": 1303.8,
      "time_minute": 21
    },
    {
      "path_id": 32,
      "path": [
        {
          "lat": 36.874557,
          "lng": 128.104401,
          "ele": 920.198
        },
        {
          "lat": 36.873863,
          "lng": 128.103699,
          "ele": 898.257
        }
      ],
      "color": "#02c119",
      "start_name": "영봉 / 충주호",
      "end_name": "자연경관",
      "length_meter": 104.3,
      "time_minute": 1
    },
    {
      "path_id": 33,
      "path": [
        {
          "lat": 36.873863,
          "lng": 128.103699,
          "ele": 898.257
        },
        {
          "lat": 36.871902,
          "lng": 128.103531,
          "ele": 716.359
        }
      ],
      "color": "#07aa8c",
      "start_name": "자연경관",
      "end_name": "웨이포인트 43",
      "length_meter": 218.6,
      "time_minute": 2
    },
    {
      "path_id": 34,
      "path": [
        {
          "lat": 36.871902,
          "lng": 128.103531,
          "ele": 716.359
        },
        {
          "lat": 36.861462,
          "lng": 128.09726,
          "ele": 312.084
        }
      ],
      "color": "#77a526",
      "start_name": "웨이포인트 43",
      "end_name": "덕주사 화장실",
      "length_meter": 1288.0,
      "time_minute": 16
    },
    {
      "path_id": 35,
      "path": [
        {
          "lat": 36.861462,
          "lng": 128.09726,
          "ele": 312.084
        },
        {
          "lat": 36.861794,
          "lng": 128.09552,
          "ele": 304.063
        }
      ],
      "color": "#764c6c",
      "start_name": "덕주사 화장실",
      "end_name": "송계계곡",
      "length_meter": 159.1,
      "time_minute": 1
    }
  ]
}