{
  "mnt_id": 65,
  "mnt_name": "월악산",
  "course_id": 178,
  "max_ele": 1117.76,
  "total_length_km": "6.7km",
  "total_time": "1시간 24분",
  "start_name": "수산교 주차장",
  "end_name": "보덕암",
  "level": "상",
  "course_name": "가파른산길 코스",
  "min_ele": 174.023,
  "track": [
    {
      "path_id": 0,
      "path": [
        {
          "lat": 36.914234,
          "lng": 128.098495,
          "ele": 179.291
        },
        {
          "lat": 36.913982,
          "lng": 128.097778,
          "ele": 174.023
        }
      ],
      "color": "#057c32",
      "start_name": "수산교 주차장",
      "end_name": "자연경관",
      "length_meter": 69.6,
      "time_minute": 0
    },
    {
      "path_id": 1,
      "path": [
        {
          "lat": 36.913982,
          "lng": 128.097778,
          "ele": 174.023
        },
        {
          "lat": 36.913582,
          "lng": 128.09671,
          "ele": 184.238
        }
      ],
      "color": "#567104",
      "start_name": "자연경관 / 갈림길 / 안내소 / 캠핑장",
      "end_name": "자연경관",
      "length_meter": 119.8,
      "time_minute": 1
    },
    {
      "path_id": 2,
      "path": [
        {
          "lat": 36.913582,
          "lng": 128.09671,
          "ele": 184.238
        },
        {
          "lat": 36.912487,
          "lng": 128.09433,
          "ele": 202.678
        }
      ],
      "color": "#57c3a6",
      "start_name": "자연경관",
      "end_name": "갈림길",
      "length_meter": 244.1,
      "time_minute": 3
    },
    {
      "path_id": 3,
      "path": [
        {
          "lat": 36.912487,
          "lng": 128.09433,
          "ele": 202.678
        },
        {
          "lat": 36.911976,
          "lng": 128.093918,
          "ele": 216.114
        }
      ],
      "color": "#458e54",
      "start_name": "갈림길 / 자연경관",
      "end_name": "외길",
      "length_meter": 72.7,
      "time_minute": 1
    },
    {
      "path_id": 4,
      "path": [
        {
          "lat": 36.911976,
          "lng": 128.093918,
          "ele": 216.114
        },
        {
          "lat": 36.905365,
          "lng": 128.092041,
          "ele": 302.72
        }
      ],
      "color": "#392aa1",
      "start_name": "외길",
      "end_name": "멧돼지 주의",
      "length_meter": 753.8,
      "time_minute": 9
    },
    {
      "path_id": 5,
      "path": [
        {
          "lat": 36.905365,
          "lng": 128.092041,
          "ele": 302.72
        },
        {
          "lat": 36.903534,
          "lng": 128.090424,
          "ele": 339.088
        }
      ],
      "color": "#75383d",
      "start_name": "멧돼지 주의",
      "end_name": "탐방로",
      "length_meter": 249.2,
      "time_minute": 3
    },
    {
      "path_id": 6,
      "path": [
        {
          "lat": 36.903534,
          "lng": 128.090424,
          "ele": 339.088
        },
        {
          "lat": 36.902191,
          "lng": 128.090393,
          "ele": 377.387
        }
      ],
      "color": "#4a9e9e",
      "start_name": "탐방로 / 파란하늘",
      "end_name": "보덕암 주차장",
      "length_meter": 150.0,
      "time_minute": 2
    },
    {
      "path_id": 7,
      "path": [
        {
          "lat": 36.902191,
          "lng": 128.090393,
          "ele": 377.387
        },
        {
          "lat": 36.901642,
          "lng": 128.091034,
          "ele": 394.091
        }
      ],
      "color": "#7e5a82",
      "start_name": "보덕암 주차장 / 안내소 / 영봉입구",
      "end_name": "목계단",
      "length_meter": 87.6,
      "time_minute": 1
    },
    {
      "path_id": 8,
      "path": [
        {
          "lat": 36.901642,
          "lng": 128.091034,
          "ele": 394.091
        },
        {
          "lat": 36.900932,
          "lng": 128.091263,
          "ele": 432.219
        }
      ],
      "color": "#64c057",
      "start_name": "목계단 / 자연경관",
      "end_name": "보덕암 쉼터",
      "length_meter": 81.7,
      "time_minute": 1
    },
    {
      "path_id": 9,
      "path": [
        {
          "lat": 36.900932,
          "lng": 128.091263,
          "ele": 432.219
        },
        {
          "lat": 36.900913,
          "lng": 128.091125,
          "ele": 436.098
        }
      ],
      "color": "#4a5d30",
      "start_name": "보덕암 쉼터",
      "end_name": "충주댐",
      "length_meter": 12.5,
      "time_minute": 0
    },
    {
      "path_id": 10,
      "path": [
        {
          "lat": 36.900913,
          "lng": 128.091125,
          "ele": 436.098
        },
        {
          "lat": 36.900669,
          "lng": 128.094437,
          "ele": 534.223
        }
      ],
      "color": "#bd64bc",
      "start_name": "충주댐 / 갈림길 / 보덕암 / 자연경관",
      "end_name": "철계단",
      "length_meter": 312.6,
      "time_minute": 5
    },
    {
      "path_id": 11,
      "path": [
        {
          "lat": 36.900669,
          "lng": 128.094437,
          "ele": 534.223
        },
        {
          "lat": 36.900043,
          "lng": 128.09436,
          "ele": 594.321
        }
      ],
      "color": "#161d3a",
      "start_name": "철계단 / 나무계단 / 철계단",
      "end_name": "너덜돌길",
      "length_meter": 78.5,
      "time_minute": 1
    },
    {
      "path_id": 12,
      "path": [
        {
          "lat": 36.900043,
          "lng": 128.09436,
          "ele": 594.321
        },
        {
          "lat": 36.899105,
          "lng": 128.09465,
          "ele": 633.058
        }
      ],
      "color": "#b3abbd",
      "start_name": "너덜돌길",
      "end_name": "자연경관",
      "length_meter": 107.4,
      "time_minute": 1
    },
    {
      "path_id": 13,
      "path": [
        {
          "lat": 36.899105,
          "lng": 128.09465,
          "ele": 633.058
        },
        {
          "lat": 36.896816,
          "lng": 128.094727,
          "ele": 763.728
        }
      ],
      "color": "#5fb2c2",
      "start_name": "자연경관",
      "end_name": "소나무",
      "length_meter": 254.6,
      "time_minute": 3
    },
    {
      "path_id": 14,
      "path": [
        {
          "lat": 36.896816,
          "lng": 128.094727,
          "ele": 763.728
        },
        {
          "lat": 36.895523,
          "lng": 128.097122,
          "ele": 814.123
        }
      ],
      "color": "#2c5526",
      "start_name": "소나무 / 자연경관",
      "end_name": "웨이포인트 61",
      "length_meter": 260.9,
      "time_minute": 4
    },
    {
      "path_id": 15,
      "path": [
        {
          "lat": 36.895523,
          "lng": 128.097122,
          "ele": 814.123
        },
        {
          "lat": 36.895382,
          "lng": 128.097824,
          "ele": 853.213
        }
      ],
      "color": "#990797",
      "start_name": "웨이포인트 61 / 안내소 / 자연경관 / 웨이포인트 64",
      "end_name": "자연경관",
      "length_meter": 66.4,
      "time_minute": 1
    },
    {
      "path_id": 16,
      "path": [
        {
          "lat": 36.895382,
          "lng": 128.097824,
          "ele": 853.213
        },
        {
          "lat": 36.893997,
          "lng": 128.099136,
          "ele": 952.461
        }
      ],
      "color": "#8861b1",
      "start_name": "자연경관 / 충주댐 / 자연경관 / 충주댐 / 자연경관",
      "end_name": "구름다리",
      "length_meter": 230.7,
      "time_minute": 3
    },
    {
      "path_id": 17,
      "path": [
        {
          "lat": 36.893997,
          "lng": 128.099136,
          "ele": 952.461
        },
        {
          "lat": 36.892551,
          "lng": 128.100525,
          "ele": 969.527
        }
      ],
      "color": "#50b02d",
      "start_name": "구름다리 / 자연경관 / 웨이포인트 80 / 자연경관",
      "end_name": "안내소",
      "length_meter": 205.5,
      "time_minute": 3
    },
    {
      "path_id": 18,
      "path": [
        {
          "lat": 36.892551,
          "lng": 128.100525,
          "ele": 969.527
        },
        {
          "lat": 36.89138,
          "lng": 128.100891,
          "ele": 994.8
        }
      ],
      "color": "#398783",
      "start_name": "안내소 / 웨이포인트 92 / 웨이포인트 93 / 자연경관",
      "end_name": "하봉",
      "length_meter": 136.5,
      "time_minute": 2
    },
    {
      "path_id": 19,
      "path": [
        {
          "lat": 36.89138,
          "lng": 128.100891,
          "ele": 994.8
        },
        {
          "lat": 36.890785,
          "lng": 128.101334,
          "ele": 1035.154
        }
      ],
      "color": "#a03b41",
      "start_name": "하봉 / 충주댐 / 하봉 / 자연경관",
      "end_name": "중봉",
      "length_meter": 84.1,
      "time_minute": 1
    },
    {
      "path_id": 20,
      "path": [
        {
          "lat": 36.890785,
          "lng": 128.101334,
          "ele": 1035.154
        },
        {
          "lat": 36.889248,
          "lng": 128.102066,
          "ele": 983.95
        }
      ],
      "color": "#b88714",
      "start_name": "중봉 / 하봉과 충주댐 / 자연경관 / 영봉전경 / 영봉가는길",
      "end_name": "자연경관",
      "length_meter": 187.4,
      "time_minute": 3
    },
    {
      "path_id": 21,
      "path": [
        {
          "lat": 36.889248,
          "lng": 128.102066,
          "ele": 983.95
        },
        {
          "lat": 36.88813,
          "lng": 128.103195,
          "ele": 973.844
        }
      ],
      "color": "#b07308",
      "start_name": "자연경관",
      "end_name": "안내소",
      "length_meter": 159.8,
      "time_minute": 1
    },
    {
      "path_id": 22,
      "path": [
        {
          "lat": 36.88813,
          "lng": 128.103195,
          "ele": 973.844
        },
        {
          "lat": 36.887604,
          "lng": 128.103821,
          "ele": 987.993
        }
      ],
      "color": "#41c600",
      "start_name": "안내소",
      "end_name": "자연경관",
      "length_meter": 80.7,
      "time_minute": 1
    },
    {
      "path_id": 23,
      "path": [
        {
          "lat": 36.887604,
          "lng": 128.103821,
          "ele": 987.993
        },
        {
          "lat": 36.886368,
          "lng": 128.104477,
          "ele": 1060.342
        }
      ],
      "color": "#975e03",
      "start_name": "자연경관 / 웨이포인트 119 / 자연경관",
      "end_name": "중봉전망",
      "length_meter": 151.9,
      "time_minute": 2
    },
    {
      "path_id": 24,
      "path": [
        {
          "lat": 36.886368,
          "lng": 128.104477,
          "ele": 1060.342
        },
        {
          "lat": 36.88615,
          "lng": 128.105225,
          "ele": 1089.045
        }
      ],
      "color": "#174f53",
      "start_name": "중봉전망 / 자연경관 / 영봉 마지막 계단",
      "end_name": "영봉",
      "length_meter": 72.3,
      "time_minute": 1
    },
    {
      "path_id": 25,
      "path": [
        {
          "lat": 36.88615,
          "lng": 128.105225,
          "ele": 1089.045
        },
        {
          "lat": 36.886074,
          "lng": 128.105682,
          "ele": 1110.211
        }
      ],
      "color": "#11211e",
      "start_name": "영봉 / 자연경관 / 중봉,하봉 / 자연경관 / 영봉에서 바라본 중봉 / 자연경관 / 영봉 / 자연경관 / 덕주사 방향 / 영봉에서 보는 중봉 하봉",
      "end_name": "중봉,하봉",
      "length_meter": 70.9,
      "time_minute": 1
    },
    {
      "path_id": 26,
      "path": [
        {
          "lat": 36.886074,
          "lng": 128.105682,
          "ele": 1110.211
        },
        {
          "lat": 36.889156,
          "lng": 128.102264,
          "ele": 975.223
        }
      ],
      "color": "#bb21bb",
      "start_name": "중봉,하봉 / 자연경관 / 영봉바위 / 자연경관",
      "end_name": "하신길",
      "length_meter": 470.4,
      "time_minute": 7
    },
    {
      "path_id": 27,
      "path": [
        {
          "lat": 36.889156,
          "lng": 128.102264,
          "ele": 975.223
        },
        {
          "lat": 36.890629,
          "lng": 128.101547,
          "ele": 1041.951
        }
      ],
      "color": "#c00418",
      "start_name": "하신길 / 자연경관",
      "end_name": "단풍",
      "length_meter": 188.6,
      "time_minute": 2
    },
    {
      "path_id": 28,
      "path": [
        {
          "lat": 36.890629,
          "lng": 128.101547,
          "ele": 1041.951
        },
        {
          "lat": 36.891144,
          "lng": 128.100952,
          "ele": 1027.85
        }
      ],
      "color": "#477803",
      "start_name": "단풍 / 자연경관 / 중봉 / 자연경관 / 중봉 / 자연경관",
      "end_name": "하봉",
      "length_meter": 81.5,
      "time_minute": 1
    },
    {
      "path_id": 29,
      "path": [
        {
          "lat": 36.891144,
          "lng": 128.100952,
          "ele": 1027.85
        },
        {
          "lat": 36.891716,
          "lng": 128.100708,
          "ele": 979.421
        }
      ],
      "color": "#54a5b1",
      "start_name": "하봉 / 자연경관 / 안내소",
      "end_name": "중봉 계단",
      "length_meter": 69.7,
      "time_minute": 1
    },
    {
      "path_id": 30,
      "path": [
        {
          "lat": 36.891716,
          "lng": 128.100708,
          "ele": 979.421
        },
        {
          "lat": 36.892544,
          "lng": 128.100601,
          "ele": 975.18
        }
      ],
      "color": "#9f7e26",
      "start_name": "중봉 계단",
      "end_name": "자연경관",
      "length_meter": 92.6,
      "time_minute": 1
    },
    {
      "path_id": 31,
      "path": [
        {
          "lat": 36.892544,
          "lng": 128.100601,
          "ele": 975.18
        },
        {
          "lat": 36.893581,
          "lng": 128.099884,
          "ele": 941.233
        }
      ],
      "color": "#15506e",
      "start_name": "자연경관 / 하봉계단 / 자연경관",
      "end_name": "안내소",
      "length_meter": 133.8,
      "time_minute": 2
    },
    {
      "path_id": 32,
      "path": [
        {
          "lat": 36.893581,
          "lng": 128.099884,
          "ele": 941.233
        },
        {
          "lat": 36.893974,
          "lng": 128.099121,
          "ele": 963.867
        }
      ],
      "color": "#7b0e1e",
      "start_name": "안내소 / 자연경관",
      "end_name": "중봉,영봉",
      "length_meter": 81.1,
      "time_minute": 1
    },
    {
      "path_id": 33,
      "path": [
        {
          "lat": 36.893974,
          "lng": 128.099121,
          "ele": 963.867
        },
        {
          "lat": 36.894814,
          "lng": 128.098373,
          "ele": 948.882
        }
      ],
      "color": "#6a7645",
      "start_name": "중봉,영봉 / 자연경관",
      "end_name": "충주댐",
      "length_meter": 115.8,
      "time_minute": 1
    },
    {
      "path_id": 34,
      "path": [
        {
          "lat": 36.894814,
          "lng": 128.098373,
          "ele": 948.882
        },
        {
          "lat": 36.895523,
          "lng": 128.098328,
          "ele": 896.993
        }
      ],
      "color": "#08618c",
      "start_name": "충주댐 / 자연경관 / 쉼터",
      "end_name": "자연경관",
      "length_meter": 80.5,
      "time_minute": 1
    },
    {
      "path_id": 35,
      "path": [
        {
          "lat": 36.895523,
          "lng": 128.098328,
          "ele": 896.993
        },
        {
          "lat": 36.900185,
          "lng": 128.094543,
          "ele": 583.991
        }
      ],
      "color": "#b9ad45",
      "start_name": "자연경관",
      "end_name": "바위",
      "length_meter": 618.1,
      "time_minute": 7
    },
    {
      "path_id": 36,
      "path": [
        {
          "lat": 36.900185,
          "lng": 128.094543,
          "ele": 583.991
        },
        {
          "lat": 36.900803,
          "lng": 128.092117,
          "ele": 452.547
        }
      ],
      "color": "#4b28ab",
      "start_name": "바위 / 자연경관",
      "end_name": "계단",
      "length_meter": 240.7,
      "time_minute": 3
    },
    {
      "path_id": 37,
      "path": [
        {
          "lat": 36.900803,
          "lng": 128.092117,
          "ele": 452.547
        },
        {
          "lat": 36.900757,
          "lng": 128.091064,
          "ele": 463.808
        }
      ],
      "color": "#a4867d",
      "start_name": "계단",
      "end_name": "자연경관",
      "length_meter": 93.8,
      "time_minute": 1
    },
    {
      "path_id": 38,
      "path": [
        {
          "lat": 36.900757,
          "lng": 128.091064,
          "ele": 463.808
        },
        {
          "lat": 36.901726,
          "lng": 128.090942,
          "ele": 391.842
        }
      ],
      "color": "#5c9c78",
      "start_name": "자연경관 / 충주댐 / 보덕암 전망대",
      "end_name": "입구계단",
      "length_meter": 137.5,
      "time_minute": 2
    },
    {
      "path_id": 39,
      "path": [
        {
          "lat": 36.901726,
          "lng": 128.090942,
          "ele": 391.842
        },
        {
          "lat": 36.90184,
          "lng": 128.090668,
          "ele": 383.994
        }
      ],
      "color": "#26c726",
      "start_name": "입구계단",
      "end_name": "보덕암",
      "length_meter": 27.5,
      "time_minute": 0
    }
  ]
}