{
  "mnt_id": 47,
  "mnt_name": "비슬산",
  "course_id": 125,
  "max_ele": 1116.245,
  "total_length_km": "10.1km",
  "total_time": "2시간 6분",
  "start_name": "용연사",
  "end_name": "유가사종점",
  "level": "상",
  "course_name": "거친산길 코스",
  "min_ele": 222.942,
  "track": [
    {
      "path_id": 0,
      "path": [
        {
          "lat": 35.751751,
          "lng": 128.511383,
          "ele": 222.942
        },
        {
          "lat": 35.749012,
          "lng": 128.515671,
          "ele": 258.722
        }
      ],
      "color": "#6d8b29",
      "start_name": "용연사",
      "end_name": "대형버스 주차장",
      "length_meter": 492.4,
      "time_minute": 6
    },
    {
      "path_id": 1,
      "path": [
        {
          "lat": 35.749012,
          "lng": 128.515671,
          "ele": 258.722
        },
        {
          "lat": 35.747559,
          "lng": 128.518143,
          "ele": 272.312
        }
      ],
      "color": "#705137",
      "start_name": "대형버스 주차장",
      "end_name": "용연사 화장실",
      "length_meter": 275.4,
      "time_minute": 3
    },
    {
      "path_id": 2,
      "path": [
        {
          "lat": 35.747559,
          "lng": 128.518143,
          "ele": 272.312
        },
        {
          "lat": 35.748013,
          "lng": 128.518997,
          "ele": 281.512
        }
      ],
      "color": "#1d6e9f",
      "start_name": "용연사 화장실 / 용연사 주차장 / 약수터",
      "end_name": "문화관광 해설사의 집",
      "length_meter": 96.3,
      "time_minute": 1
    },
    {
      "path_id": 3,
      "path": [
        {
          "lat": 35.748013,
          "lng": 128.518997,
          "ele": 281.512
        },
        {
          "lat": 35.748245,
          "lng": 128.519394,
          "ele": 284.54
        }
      ],
      "color": "#395d33",
      "start_name": "문화관광 해설사의 집",
      "end_name": "용연사",
      "length_meter": 44.1,
      "time_minute": 0
    },
    {
      "path_id": 4,
      "path": [
        {
          "lat": 35.748245,
          "lng": 128.519394,
          "ele": 284.54
        },
        {
          "lat": 35.750656,
          "lng": 128.523895,
          "ele": 372.74
        }
      ],
      "color": "#89690d",
      "start_name": "용연사 / 갈림길",
      "end_name": "쉼터",
      "length_meter": 487.4,
      "time_minute": 8
    },
    {
      "path_id": 5,
      "path": [
        {
          "lat": 35.750656,
          "lng": 128.523895,
          "ele": 372.74
        },
        {
          "lat": 35.750698,
          "lng": 128.531113,
          "ele": 498.256
        }
      ],
      "color": "#b28366",
      "start_name": "쉼터",
      "end_name": "갈림길",
      "length_meter": 651.4,
      "time_minute": 8
    },
    {
      "path_id": 6,
      "path": [
        {
          "lat": 35.750698,
          "lng": 128.531113,
          "ele": 498.256
        },
        {
          "lat": 35.750824,
          "lng": 128.533142,
          "ele": 548.43
        }
      ],
      "color": "#800c5a",
      "start_name": "갈림길",
      "end_name": "쉼터",
      "length_meter": 183.6,
      "time_minute": 2
    },
    {
      "path_id": 7,
      "path": [
        {
          "lat": 35.750824,
          "lng": 128.533142,
          "ele": 548.43
        },
        {
          "lat": 35.750061,
          "lng": 128.535309,
          "ele": 634.783
        }
      ],
      "color": "#9b7839",
      "start_name": "쉼터",
      "end_name": "용연사약수터",
      "length_meter": 213.2,
      "time_minute": 2
    },
    {
      "path_id": 8,
      "path": [
        {
          "lat": 35.750061,
          "lng": 128.535309,
          "ele": 634.783
        },
        {
          "lat": 35.741165,
          "lng": 128.5383,
          "ele": 715.726
        }
      ],
      "color": "#6a492c",
      "start_name": "용연사약수터 / 갈림길",
      "end_name": "간이쉼터",
      "length_meter": 1027.0,
      "time_minute": 16
    },
    {
      "path_id": 9,
      "path": [
        {
          "lat": 35.741165,
          "lng": 128.5383,
          "ele": 715.726
        },
        {
          "lat": 35.740391,
          "lng": 128.538559,
          "ele": 721.346
        }
      ],
      "color": "#613193",
      "start_name": "간이쉼터",
      "end_name": "쉼터",
      "length_meter": 89.2,
      "time_minute": 1
    },
    {
      "path_id": 10,
      "path": [
        {
          "lat": 35.740391,
          "lng": 128.538559,
          "ele": 721.346
        },
        {
          "lat": 35.739182,
          "lng": 128.539276,
          "ele": 727.517
        }
      ],
      "color": "#522b6f",
      "start_name": "쉼터",
      "end_name": "갈림길",
      "length_meter": 149.2,
      "time_minute": 1
    },
    {
      "path_id": 11,
      "path": [
        {
          "lat": 35.739182,
          "lng": 128.539276,
          "ele": 727.517
        },
        {
          "lat": 35.736572,
          "lng": 128.534714,
          "ele": 883.908
        }
      ],
      "color": "#107f9e",
      "start_name": "갈림길",
      "end_name": "쉼터",
      "length_meter": 503.8,
      "time_minute": 6
    },
    {
      "path_id": 12,
      "path": [
        {
          "lat": 35.736572,
          "lng": 128.534714,
          "ele": 883.908
        },
        {
          "lat": 35.735752,
          "lng": 128.533386,
          "ele": 877.653
        }
      ],
      "color": "#9a8d88",
      "start_name": "쉼터",
      "end_name": "거대 암석",
      "length_meter": 150.6,
      "time_minute": 1
    },
    {
      "path_id": 13,
      "path": [
        {
          "lat": 35.735752,
          "lng": 128.533386,
          "ele": 877.653
        },
        {
          "lat": 35.730679,
          "lng": 128.529175,
          "ele": 849.466
        }
      ],
      "color": "#8a3bac",
      "start_name": "거대 암석",
      "end_name": "갈림길",
      "length_meter": 680.2,
      "time_minute": 8
    },
    {
      "path_id": 14,
      "path": [
        {
          "lat": 35.730679,
          "lng": 128.529175,
          "ele": 849.466
        },
        {
          "lat": 35.722805,
          "lng": 128.526047,
          "ele": 900.791
        }
      ],
      "color": "#8bb8ba",
      "start_name": "갈림길",
      "end_name": "쉼터",
      "length_meter": 920.0,
      "time_minute": 11
    },
    {
      "path_id": 15,
      "path": [
        {
          "lat": 35.722805,
          "lng": 128.526047,
          "ele": 900.791
        },
        {
          "lat": 35.718925,
          "lng": 128.52298,
          "ele": 1046.672
        }
      ],
      "color": "#b391aa",
      "start_name": "쉼터",
      "end_name": "갈림길",
      "length_meter": 512.6,
      "time_minute": 6
    },
    {
      "path_id": 16,
      "path": [
        {
          "lat": 35.718925,
          "lng": 128.52298,
          "ele": 1046.672
        },
        {
          "lat": 35.718742,
          "lng": 128.523041,
          "ele": 1061.407
        }
      ],
      "color": "#338226",
      "start_name": "갈림길",
      "end_name": "대구 도시 뷰",
      "length_meter": 21.1,
      "time_minute": 0
    },
    {
      "path_id": 17,
      "path": [
        {
          "lat": 35.718742,
          "lng": 128.523041,
          "ele": 1061.407
        },
        {
          "lat": 35.717262,
          "lng": 128.523697,
          "ele": 1079.543
        }
      ],
      "color": "#3a0fc2",
      "start_name": "대구 도시 뷰",
      "end_name": "갈림길",
      "length_meter": 174.9,
      "time_minute": 2
    },
    {
      "path_id": 18,
      "path": [
        {
          "lat": 35.717262,
          "lng": 128.523697,
          "ele": 1079.543
        },
        {
          "lat": 35.715603,
          "lng": 128.52359,
          "ele": 1085.824
        }
      ],
      "color": "#a5a495",
      "start_name": "갈림길",
      "end_name": "비슬산 천왕봉",
      "length_meter": 184.7,
      "time_minute": 2
    },
    {
      "path_id": 19,
      "path": [
        {
          "lat": 35.715603,
          "lng": 128.52359,
          "ele": 1085.824
        },
        {
          "lat": 35.715382,
          "lng": 128.523819,
          "ele": 1115.885
        }
      ],
      "color": "#069387",
      "start_name": "비슬산 천왕봉 / 비슬산 역사소개 / 정상 정자와 푸른하늘 / 정자",
      "end_name": "정상 능선 뷰",
      "length_meter": 39.9,
      "time_minute": 0
    },
    {
      "path_id": 20,
      "path": [
        {
          "lat": 35.715382,
          "lng": 128.523819,
          "ele": 1115.885
        },
        {
          "lat": 35.715317,
          "lng": 128.524536,
          "ele": 1115.176
        }
      ],
      "color": "#428490",
      "start_name": "정상 능선 뷰 / 갈림길",
      "end_name": "정상뷰",
      "length_meter": 82.0,
      "time_minute": 1
    },
    {
      "path_id": 21,
      "path": [
        {
          "lat": 35.715317,
          "lng": 128.524536,
          "ele": 1115.176
        },
        {
          "lat": 35.718922,
          "lng": 128.521133,
          "ele": 1099.399
        }
      ],
      "color": "#0294a7",
      "start_name": "정상뷰",
      "end_name": "거대암석",
      "length_meter": 505.0,
      "time_minute": 6
    },
    {
      "path_id": 22,
      "path": [
        {
          "lat": 35.718922,
          "lng": 128.521133,
          "ele": 1099.399
        },
        {
          "lat": 35.718876,
          "lng": 128.520233,
          "ele": 1033.246
        }
      ],
      "color": "#20905b",
      "start_name": "거대암석",
      "end_name": "쉼터",
      "length_meter": 81.4,
      "time_minute": 1
    },
    {
      "path_id": 23,
      "path": [
        {
          "lat": 35.718876,
          "lng": 128.520233,
          "ele": 1033.246
        },
        {
          "lat": 35.7197,
          "lng": 128.516708,
          "ele": 940.925
        }
      ],
      "color": "#5ba34c",
      "start_name": "쉼터 / 도성암 조망",
      "end_name": "정상이 보이는 자리",
      "length_meter": 331.6,
      "time_minute": 5
    },
    {
      "path_id": 24,
      "path": [
        {
          "lat": 35.7197,
          "lng": 128.516708,
          "ele": 940.925
        },
        {
          "lat": 35.718994,
          "lng": 128.514648,
          "ele": 868.129
        }
      ],
      "color": "#643f6b",
      "start_name": "정상이 보이는 자리",
      "end_name": "거대암석",
      "length_meter": 201.9,
      "time_minute": 2
    },
    {
      "path_id": 25,
      "path": [
        {
          "lat": 35.718994,
          "lng": 128.514648,
          "ele": 868.129
        },
        {
          "lat": 35.71843,
          "lng": 128.513718,
          "ele": 814.449
        }
      ],
      "color": "#749c3c",
      "start_name": "거대암석",
      "end_name": "갈림길",
      "length_meter": 104.8,
      "time_minute": 1
    },
    {
      "path_id": 26,
      "path": [
        {
          "lat": 35.71843,
          "lng": 128.513718,
          "ele": 814.449
        },
        {
          "lat": 35.717144,
          "lng": 128.515701,
          "ele": 694.639
        }
      ],
      "color": "#58808d",
      "start_name": "갈림길",
      "end_name": "도성암 공터 주차장",
      "length_meter": 229.1,
      "time_minute": 2
    },
    {
      "path_id": 27,
      "path": [
        {
          "lat": 35.717144,
          "lng": 128.515701,
          "ele": 694.639
        },
        {
          "lat": 35.717117,
          "lng": 128.515854,
          "ele": 687.896
        }
      ],
      "color": "#c7b52f",
      "start_name": "도성암 공터 주차장",
      "end_name": "정상이 보이는 자리",
      "length_meter": 14.1,
      "time_minute": 0
    },
    {
      "path_id": 28,
      "path": [
        {
          "lat": 35.717117,
          "lng": 128.515854,
          "ele": 687.896
        },
        {
          "lat": 35.717827,
          "lng": 128.515121,
          "ele": 681.757
        }
      ],
      "color": "#30ae33",
      "start_name": "정상이 보이는 자리 / 갈림길",
      "end_name": "도성암",
      "length_meter": 108.2,
      "time_minute": 1
    },
    {
      "path_id": 29,
      "path": [
        {
          "lat": 35.717827,
          "lng": 128.515121,
          "ele": 681.757
        },
        {
          "lat": 35.71788,
          "lng": 128.514633,
          "ele": 688.663
        }
      ],
      "color": "#b72657",
      "start_name": "도성암 / 정상이 보이는 자리",
      "end_name": "도성암에서 본 풍경",
      "length_meter": 65.1,
      "time_minute": 0
    },
    {
      "path_id": 30,
      "path": [
        {
          "lat": 35.71788,
          "lng": 128.514633,
          "ele": 688.663
        },
        {
          "lat": 35.718197,
          "lng": 128.512726,
          "ele": 776.658
        }
      ],
      "color": "#633895",
      "start_name": "도성암에서 본 풍경",
      "end_name": "갈림길",
      "length_meter": 175.7,
      "time_minute": 2
    },
    {
      "path_id": 31,
      "path": [
        {
          "lat": 35.718197,
          "lng": 128.512726,
          "ele": 776.658
        },
        {
          "lat": 35.715424,
          "lng": 128.510452,
          "ele": 648.38
        }
      ],
      "color": "#41991c",
      "start_name": "갈림길",
      "end_name": "돌탑들",
      "length_meter": 370.4,
      "time_minute": 4
    },
    {
      "path_id": 32,
      "path": [
        {
          "lat": 35.715424,
          "lng": 128.510452,
          "ele": 648.38
        },
        {
          "lat": 35.712635,
          "lng": 128.505661,
          "ele": 481.258
        }
      ],
      "color": "#6902ae",
      "start_name": "돌탑들 / 갈림길",
      "end_name": "유가사",
      "length_meter": 534.7,
      "time_minute": 8
    },
    {
      "path_id": 33,
      "path": [
        {
          "lat": 35.712635,
          "lng": 128.505661,
          "ele": 481.258
        },
        {
          "lat": 35.713947,
          "lng": 128.502365,
          "ele": 427.945
        }
      ],
      "color": "#6fbf02",
      "start_name": "유가사",
      "end_name": "정상이 보이는곳",
      "length_meter": 331.4,
      "time_minute": 4
    },
    {
      "path_id": 34,
      "path": [
        {
          "lat": 35.713947,
          "lng": 128.502365,
          "ele": 427.945
        },
        {
          "lat": 35.713718,
          "lng": 128.501343,
          "ele": 406.819
        }
      ],
      "color": "#99814b",
      "start_name": "정상이 보이는곳",
      "end_name": "유가사 천왕봉 등산객 전용 주차장",
      "length_meter": 95.7,
      "time_minute": 1
    },
    {
      "path_id": 35,
      "path": [
        {
          "lat": 35.713718,
          "lng": 128.501343,
          "ele": 406.819
        },
        {
          "lat": 35.713776,
          "lng": 128.501358,
          "ele": 383.401
        }
      ],
      "color": "#9b343d",
      "start_name": "유가사 천왕봉 등산객 전용 주차장",
      "end_name": "유가사종점",
      "length_meter": 6.6,
      "time_minute": 0
    }
  ]
}