{
  "mnt_id": 19,
  "mnt_name": "내장산",
  "course_id": 52,
  "max_ele": 644.531,
  "total_length_km": "6.6km",
  "total_time": "1시간 22분",
  "start_name": "내장산 국립공원 탐방안내소",
  "end_name": "탐방센터 단풍",
  "level": "중",
  "course_name": "탄력등산 코스",
  "min_ele": 218.025,
  "track": [
    {
      "path_id": 0,
      "path": [
        {
          "lat": 35.487667,
          "lng": 126.907997,
          "ele": 218.025
        },
        {
          "lat": 35.488475,
          "lng": 126.906905,
          "ele": 228.511
        }
      ],
      "color": "#429b45",
      "start_name": "내장산 국립공원 탐방안내소 / 탐방안내소 화장실",
      "end_name": "자연관찰로 탐방 안내",
      "length_meter": 138.3,
      "time_minute": 2
    },
    {
      "path_id": 1,
      "path": [
        {
          "lat": 35.488475,
          "lng": 126.906905,
          "ele": 228.511
        },
        {
          "lat": 35.490562,
          "lng": 126.906059,
          "ele": 306.406
        }
      ],
      "color": "#999cb0",
      "start_name": "자연관찰로 탐방 안내",
      "end_name": "쉼터",
      "length_meter": 244.4,
      "time_minute": 3
    },
    {
      "path_id": 2,
      "path": [
        {
          "lat": 35.490562,
          "lng": 126.906059,
          "ele": 306.406
        },
        {
          "lat": 35.492596,
          "lng": 126.905792,
          "ele": 336.389
        }
      ],
      "color": "#ba8b9f",
      "start_name": "쉼터",
      "end_name": "갈림길",
      "length_meter": 227.5,
      "time_minute": 2
    },
    {
      "path_id": 3,
      "path": [
        {
          "lat": 35.492596,
          "lng": 126.905792,
          "ele": 336.389
        },
        {
          "lat": 35.492867,
          "lng": 126.905144,
          "ele": 346.141
        }
      ],
      "color": "#653b6c",
      "start_name": "갈림길 / 서래봉 구간 탐방 예약제 안내",
      "end_name": "백련암",
      "length_meter": 77.8,
      "time_minute": 1
    },
    {
      "path_id": 4,
      "path": [
        {
          "lat": 35.492867,
          "lng": 126.905144,
          "ele": 346.141
        },
        {
          "lat": 35.493881,
          "lng": 126.902679,
          "ele": 379.623
        }
      ],
      "color": "#adc734",
      "start_name": "백련암 / 백련암에서 바라본 서래봉",
      "end_name": "위치번호 내장06-02",
      "length_meter": 250.0,
      "time_minute": 4
    },
    {
      "path_id": 5,
      "path": [
        {
          "lat": 35.493881,
          "lng": 126.902679,
          "ele": 379.623
        },
        {
          "lat": 35.494728,
          "lng": 126.89624,
          "ele": 340.585
        }
      ],
      "color": "#361dc0",
      "start_name": "위치번호 내장06-02",
      "end_name": "쉼터",
      "length_meter": 590.5,
      "time_minute": 7
    },
    {
      "path_id": 6,
      "path": [
        {
          "lat": 35.494728,
          "lng": 126.89624,
          "ele": 340.585
        },
        {
          "lat": 35.49469,
          "lng": 126.895058,
          "ele": 331.958
        }
      ],
      "color": "#6d359a",
      "start_name": "쉼터",
      "end_name": "갈림길",
      "length_meter": 107.1,
      "time_minute": 1
    },
    {
      "path_id": 7,
      "path": [
        {
          "lat": 35.49469,
          "lng": 126.895058,
          "ele": 331.958
        },
        {
          "lat": 35.495625,
          "lng": 126.894943,
          "ele": 391.77
        }
      ],
      "color": "#97b8a5",
      "start_name": "갈림길",
      "end_name": "미끄럼 주의",
      "length_meter": 104.5,
      "time_minute": 1
    },
    {
      "path_id": 8,
      "path": [
        {
          "lat": 35.495625,
          "lng": 126.894943,
          "ele": 391.77
        },
        {
          "lat": 35.497974,
          "lng": 126.894997,
          "ele": 505.707
        }
      ],
      "color": "#2f54ae",
      "start_name": "미끄럼 주의",
      "end_name": "위치번호 03-01",
      "length_meter": 261.2,
      "time_minute": 3
    },
    {
      "path_id": 9,
      "path": [
        {
          "lat": 35.497974,
          "lng": 126.894997,
          "ele": 505.707
        },
        {
          "lat": 35.498882,
          "lng": 126.894402,
          "ele": 543.55
        }
      ],
      "color": "#886e70",
      "start_name": "위치번호 03-01",
      "end_name": "미끄럼 주의",
      "length_meter": 114.4,
      "time_minute": 1
    },
    {
      "path_id": 10,
      "path": [
        {
          "lat": 35.498882,
          "lng": 126.894402,
          "ele": 543.55
        },
        {
          "lat": 35.499378,
          "lng": 126.893532,
          "ele": 599.378
        }
      ],
      "color": "#1d3e7f",
      "start_name": "미끄럼 주의",
      "end_name": "불출암지",
      "length_meter": 96.1,
      "time_minute": 1
    },
    {
      "path_id": 11,
      "path": [
        {
          "lat": 35.499378,
          "lng": 126.893532,
          "ele": 599.378
        },
        {
          "lat": 35.499676,
          "lng": 126.893265,
          "ele": 637.619
        }
      ],
      "color": "#3fbe91",
      "start_name": "불출암지 / 갈림길",
      "end_name": "불출봉",
      "length_meter": 101.6,
      "time_minute": 1
    },
    {
      "path_id": 12,
      "path": [
        {
          "lat": 35.499676,
          "lng": 126.893265,
          "ele": 637.619
        },
        {
          "lat": 35.499703,
          "lng": 126.893163,
          "ele": 644.531
        }
      ],
      "color": "#aba06a",
      "start_name": "불출봉 / 불출봉에서 바라본 전망1 / 불출봉에서 바라본 전망2",
      "end_name": "불출봉에서 바라본 전망3",
      "length_meter": 9.7,
      "time_minute": 0
    },
    {
      "path_id": 13,
      "path": [
        {
          "lat": 35.499703,
          "lng": 126.893163,
          "ele": 644.531
        },
        {
          "lat": 35.494736,
          "lng": 126.895119,
          "ele": 332.655
        }
      ],
      "color": "#b25f3f",
      "start_name": "불출봉에서 바라본 전망3",
      "end_name": "갈림길",
      "length_meter": 580.0,
      "time_minute": 7
    },
    {
      "path_id": 14,
      "path": [
        {
          "lat": 35.494736,
          "lng": 126.895119,
          "ele": 332.655
        },
        {
          "lat": 35.494953,
          "lng": 126.894043,
          "ele": 340.881
        }
      ],
      "color": "#4b2719",
      "start_name": "갈림길 / 국립공원 특별  보호구 안내 / 입산시간 제한 안내",
      "end_name": "원적암에서 바라본 불출봉",
      "length_meter": 103.7,
      "time_minute": 1
    },
    {
      "path_id": 15,
      "path": [
        {
          "lat": 35.494953,
          "lng": 126.894043,
          "ele": 340.881
        },
        {
          "lat": 35.494953,
          "lng": 126.894043,
          "ele": 340.881
        }
      ],
      "color": "#2b3079",
      "start_name": "원적암에서 바라본 불출봉",
      "end_name": "원적암",
      "length_meter": 0.0,
      "time_minute": 0
    },
    {
      "path_id": 16,
      "path": [
        {
          "lat": 35.494953,
          "lng": 126.894043,
          "ele": 340.881
        },
        {
          "lat": 35.493523,
          "lng": 126.893593,
          "ele": 280.944
        }
      ],
      "color": "#9f1061",
      "start_name": "원적암 / 갈림길",
      "end_name": "탐방로 안내",
      "length_meter": 165.1,
      "time_minute": 2
    },
    {
      "path_id": 17,
      "path": [
        {
          "lat": 35.493523,
          "lng": 126.893593,
          "ele": 280.944
        },
        {
          "lat": 35.492981,
          "lng": 126.895767,
          "ele": 269.577
        }
      ],
      "color": "#1d9060",
      "start_name": "탐방로 안내 / 쉼터",
      "end_name": "원적3교",
      "length_meter": 208.0,
      "time_minute": 3
    },
    {
      "path_id": 18,
      "path": [
        {
          "lat": 35.492981,
          "lng": 126.895767,
          "ele": 269.577
        },
        {
          "lat": 35.492676,
          "lng": 126.897324,
          "ele": 263.816
        }
      ],
      "color": "#4db80d",
      "start_name": "원적3교",
      "end_name": "원적2교",
      "length_meter": 145.0,
      "time_minute": 1
    },
    {
      "path_id": 19,
      "path": [
        {
          "lat": 35.492676,
          "lng": 126.897324,
          "ele": 263.816
        },
        {
          "lat": 35.492183,
          "lng": 126.899691,
          "ele": 256.642
        }
      ],
      "color": "#8a1a4c",
      "start_name": "원적2교",
      "end_name": "내장산 단풍",
      "length_meter": 221.2,
      "time_minute": 2
    },
    {
      "path_id": 20,
      "path": [
        {
          "lat": 35.492183,
          "lng": 126.899691,
          "ele": 256.642
        },
        {
          "lat": 35.491524,
          "lng": 126.901138,
          "ele": 246.936
        }
      ],
      "color": "#c424bd",
      "start_name": "내장산 단풍 / 매점",
      "end_name": "쉼터",
      "length_meter": 150.1,
      "time_minute": 2
    },
    {
      "path_id": 21,
      "path": [
        {
          "lat": 35.491524,
          "lng": 126.901138,
          "ele": 246.936
        },
        {
          "lat": 35.489899,
          "lng": 126.902374,
          "ele": 242.686
        }
      ],
      "color": "#16238a",
      "start_name": "쉼터",
      "end_name": "내장사",
      "length_meter": 212.5,
      "time_minute": 2
    },
    {
      "path_id": 22,
      "path": [
        {
          "lat": 35.489899,
          "lng": 126.902374,
          "ele": 242.686
        },
        {
          "lat": 35.489353,
          "lng": 126.903496,
          "ele": 236.407
        }
      ],
      "color": "#91270f",
      "start_name": "내장사 / 내장사 화장실",
      "end_name": "스님 사리함",
      "length_meter": 124.8,
      "time_minute": 2
    },
    {
      "path_id": 23,
      "path": [
        {
          "lat": 35.489353,
          "lng": 126.903496,
          "ele": 236.407
        },
        {
          "lat": 35.486797,
          "lng": 126.908499,
          "ele": 236.063
        }
      ],
      "color": "#5c133b",
      "start_name": "스님 사리함 / 쉼터",
      "end_name": "케이블카 앞에서 바라본 내장산 단풍",
      "length_meter": 534.7,
      "time_minute": 8
    },
    {
      "path_id": 24,
      "path": [
        {
          "lat": 35.486797,
          "lng": 126.908499,
          "ele": 236.063
        },
        {
          "lat": 35.486726,
          "lng": 126.908594,
          "ele": 234.919
        }
      ],
      "color": "#0ab146",
      "start_name": "케이블카 앞에서 바라본 내장산 단풍",
      "end_name": "케이블카 운행시간",
      "length_meter": 11.7,
      "time_minute": 0
    },
    {
      "path_id": 25,
      "path": [
        {
          "lat": 35.486726,
          "lng": 126.908594,
          "ele": 234.919
        },
        {
          "lat": 35.484711,
          "lng": 126.901779,
          "ele": 463.324
        }
      ],
      "color": "#270901",
      "start_name": "케이블카 운행시간",
      "end_name": "갈림길",
      "length_meter": 656.5,
      "time_minute": 8
    },
    {
      "path_id": 26,
      "path": [
        {
          "lat": 35.484711,
          "lng": 126.901779,
          "ele": 463.324
        },
        {
          "lat": 35.486366,
          "lng": 126.903053,
          "ele": 425.327
        }
      ],
      "color": "#a8c679",
      "start_name": "갈림길 / 굴거리나무 군락지",
      "end_name": "매점 가는길",
      "length_meter": 221.8,
      "time_minute": 3
    },
    {
      "path_id": 27,
      "path": [
        {
          "lat": 35.486366,
          "lng": 126.903053,
          "ele": 425.327
        },
        {
          "lat": 35.486923,
          "lng": 126.903389,
          "ele": 435.604
        }
      ],
      "color": "#ab4939",
      "start_name": "매점 가는길 / 매점 / 전망대 / 전망대에서 바라본 서래봉과 백련암 / 전망대에서 바라본 월영봉",
      "end_name": "전망대에서 바라본 연지봉,망해봉.불출봉,서래봉",
      "length_meter": 70.0,
      "time_minute": 1
    },
    {
      "path_id": 28,
      "path": [
        {
          "lat": 35.486923,
          "lng": 126.903389,
          "ele": 435.604
        },
        {
          "lat": 35.486683,
          "lng": 126.903229,
          "ele": 426.569
        }
      ],
      "color": "#bd1920",
      "start_name": "전망대에서 바라본 연지봉,망해봉.불출봉,서래봉 / 갈림길",
      "end_name": "전망대 화장실",
      "length_meter": 42.9,
      "time_minute": 0
    },
    {
      "path_id": 29,
      "path": [
        {
          "lat": 35.486683,
          "lng": 126.903229,
          "ele": 426.569
        },
        {
          "lat": 35.488625,
          "lng": 126.901321,
          "ele": 253.151
        }
      ],
      "color": "#41618d",
      "start_name": "전망대 화장실",
      "end_name": "갈림길",
      "length_meter": 276.5,
      "time_minute": 3
    },
    {
      "path_id": 30,
      "path": [
        {
          "lat": 35.488625,
          "lng": 126.901321,
          "ele": 253.151
        },
        {
          "lat": 35.489071,
          "lng": 126.90271,
          "ele": 249.204
        }
      ],
      "color": "#574368",
      "start_name": "갈림길",
      "end_name": "매점",
      "length_meter": 135.2,
      "time_minute": 1
    },
    {
      "path_id": 31,
      "path": [
        {
          "lat": 35.489071,
          "lng": 126.90271,
          "ele": 249.204
        },
        {
          "lat": 35.489014,
          "lng": 126.903923,
          "ele": 244.17
        }
      ],
      "color": "#18243e",
      "start_name": "매점 / 내장산 단풍",
      "end_name": "실록교",
      "length_meter": 112.8,
      "time_minute": 1
    },
    {
      "path_id": 32,
      "path": [
        {
          "lat": 35.489014,
          "lng": 126.903923,
          "ele": 244.17
        },
        {
          "lat": 35.488489,
          "lng": 126.906688,
          "ele": 242.322
        }
      ],
      "color": "#029876",
      "start_name": "실록교 / 내장산 단풍",
      "end_name": "내장사 단풍터널 입구",
      "length_meter": 258.3,
      "time_minute": 4
    },
    {
      "path_id": 33,
      "path": [
        {
          "lat": 35.488489,
          "lng": 126.906688,
          "ele": 242.322
        },
        {
          "lat": 35.488317,
          "lng": 126.907095,
          "ele": 238.502
        }
      ],
      "color": "#6182a3",
      "start_name": "내장사 단풍터널 입구 / 갈림길",
      "end_name": "탐방센터 단풍",
      "length_meter": 46.5,
      "time_minute": 0
    }
  ]
}