{
  "mnt_id": 85,
  "mnt_name": "치악산",
  "course_id": 220,
  "max_ele": 1304.171,
  "total_length_km": "8.2km",
  "total_time": "1시간 42분",
  "start_name": "치악산국립공원황골탐방지원센터",
  "end_name": "산장",
  "level": "상",
  "course_name": "거친산길 코스",
  "min_ele": 334.511,
  "track": [
    {
      "path_id": 0,
      "path": [
        {
          "lat": 37.360477,
          "lng": 128.022171,
          "ele": 451.91
        },
        {
          "lat": 37.360046,
          "lng": 128.035858,
          "ele": 699.183
        }
      ],
      "color": "#9fa666",
      "start_name": "치악산국립공원황골탐방지원센터 / 황골지구 주차장",
      "end_name": "입석사 대웅전",
      "length_meter": 1231.5,
      "time_minute": 20
    },
    {
      "path_id": 1,
      "path": [
        {
          "lat": 37.360046,
          "lng": 128.035858,
          "ele": 699.183
        },
        {
          "lat": 37.361572,
          "lng": 128.040726,
          "ele": 920.313
        }
      ],
      "color": "#c17492",
      "start_name": "입석사 대웅전 / 입석사 삼성각 / 탐방로",
      "end_name": "데크마루",
      "length_meter": 466.1,
      "time_minute": 7
    },
    {
      "path_id": 2,
      "path": [
        {
          "lat": 37.361572,
          "lng": 128.040726,
          "ele": 920.313
        },
        {
          "lat": 37.362377,
          "lng": 128.046448,
          "ele": 1124.443
        }
      ],
      "color": "#611030",
      "start_name": "데크마루",
      "end_name": "황골삼거리",
      "length_meter": 513.6,
      "time_minute": 6
    },
    {
      "path_id": 3,
      "path": [
        {
          "lat": 37.362377,
          "lng": 128.046448,
          "ele": 1124.443
        },
        {
          "lat": 37.365135,
          "lng": 128.047974,
          "ele": 1179.762
        }
      ],
      "color": "#7a4783",
      "start_name": "황골삼거리",
      "end_name": "쥐넘이재 전망대",
      "length_meter": 335.0,
      "time_minute": 4
    },
    {
      "path_id": 4,
      "path": [
        {
          "lat": 37.365135,
          "lng": 128.047974,
          "ele": 1179.762
        },
        {
          "lat": 37.366127,
          "lng": 128.051819,
          "ele": 1207.67
        }
      ],
      "color": "#58841c",
      "start_name": "쥐넘이재 전망대",
      "end_name": "헬기장처럼 보이나 표시없는 빈공터",
      "length_meter": 357.3,
      "time_minute": 4
    },
    {
      "path_id": 5,
      "path": [
        {
          "lat": 37.366127,
          "lng": 128.051819,
          "ele": 1207.67
        },
        {
          "lat": 37.365742,
          "lng": 128.053757,
          "ele": 1221.583
        }
      ],
      "color": "#a1a205",
      "start_name": "헬기장처럼 보이나 표시없는 빈공터 / 황장금표",
      "end_name": "비로봉입구 쉼터",
      "length_meter": 176.6,
      "time_minute": 2
    },
    {
      "path_id": 6,
      "path": [
        {
          "lat": 37.365742,
          "lng": 128.053757,
          "ele": 1221.583
        },
        {
          "lat": 37.365051,
          "lng": 128.055481,
          "ele": 1264.653
        }
      ],
      "color": "#2f0f49",
      "start_name": "비로봉입구 쉼터",
      "end_name": "치악산비로봉",
      "length_meter": 170.6,
      "time_minute": 2
    },
    {
      "path_id": 7,
      "path": [
        {
          "lat": 37.365051,
          "lng": 128.055481,
          "ele": 1264.653
        },
        {
          "lat": 37.371685,
          "lng": 128.057846,
          "ele": 1018.981
        }
      ],
      "color": "#9d1539",
      "start_name": "치악산비로봉 / 비로봉 미륵불탑 / 비로봉 바로밑",
      "end_name": "쉼터",
      "length_meter": 780.8,
      "time_minute": 12
    },
    {
      "path_id": 8,
      "path": [
        {
          "lat": 37.371685,
          "lng": 128.057846,
          "ele": 1018.981
        },
        {
          "lat": 37.37315,
          "lng": 128.058533,
          "ele": 929.229
        }
      ],
      "color": "#6379ab",
      "start_name": "쉼터",
      "end_name": "말등바위 전망대",
      "length_meter": 173.8,
      "time_minute": 2
    },
    {
      "path_id": 9,
      "path": [
        {
          "lat": 37.37315,
          "lng": 128.058533,
          "ele": 929.229
        },
        {
          "lat": 37.374432,
          "lng": 128.058777,
          "ele": 874.018
        }
      ],
      "color": "#203abf",
      "start_name": "말등바위 전망대 / 말동바위 전망대 부근",
      "end_name": "간이 쉼터",
      "length_meter": 144.5,
      "time_minute": 2
    },
    {
      "path_id": 10,
      "path": [
        {
          "lat": 37.374432,
          "lng": 128.058777,
          "ele": 874.018
        },
        {
          "lat": 37.376045,
          "lng": 128.058975,
          "ele": 860.646
        }
      ],
      "color": "#406427",
      "start_name": "간이 쉼터",
      "end_name": "표지목",
      "length_meter": 180.2,
      "time_minute": 2
    },
    {
      "path_id": 11,
      "path": [
        {
          "lat": 37.376045,
          "lng": 128.058975,
          "ele": 860.646
        },
        {
          "lat": 37.378723,
          "lng": 128.058578,
          "ele": 835.727
        }
      ],
      "color": "#9b3e38",
      "start_name": "표지목",
      "end_name": "초간이 쉼터",
      "length_meter": 299.8,
      "time_minute": 3
    },
    {
      "path_id": 12,
      "path": [
        {
          "lat": 37.378723,
          "lng": 128.058578,
          "ele": 835.727
        },
        {
          "lat": 37.383465,
          "lng": 128.059296,
          "ele": 600.685
        }
      ],
      "color": "#a14585",
      "start_name": "초간이 쉼터",
      "end_name": "세렴폭포 옆 다리",
      "length_meter": 531.1,
      "time_minute": 6
    },
    {
      "path_id": 13,
      "path": [
        {
          "lat": 37.383465,
          "lng": 128.059296,
          "ele": 600.685
        },
        {
          "lat": 37.388229,
          "lng": 128.056885,
          "ele": 514.264
        }
      ],
      "color": "#4cb662",
      "start_name": "세렴폭포 옆 다리 / 세럼폭포 입구 쉼터 / 황장금표",
      "end_name": "간이쉼터",
      "length_meter": 583.4,
      "time_minute": 9
    },
    {
      "path_id": 14,
      "path": [
        {
          "lat": 37.388229,
          "lng": 128.056885,
          "ele": 514.264
        },
        {
          "lat": 37.394272,
          "lng": 128.053635,
          "ele": 455.292
        }
      ],
      "color": "#c3954b",
      "start_name": "간이쉼터",
      "end_name": "비로봉 시작졈",
      "length_meter": 730.7,
      "time_minute": 9
    },
    {
      "path_id": 15,
      "path": [
        {
          "lat": 37.394272,
          "lng": 128.053635,
          "ele": 455.292
        },
        {
          "lat": 37.394917,
          "lng": 128.05307,
          "ele": 438.759
        }
      ],
      "color": "#5b744f",
      "start_name": "비로봉 시작졈 / 대곡안전센터",
      "end_name": "생태학습원",
      "length_meter": 93.6,
      "time_minute": 1
    },
    {
      "path_id": 16,
      "path": [
        {
          "lat": 37.394917,
          "lng": 128.05307,
          "ele": 438.759
        },
        {
          "lat": 37.394939,
          "lng": 128.05307,
          "ele": 437.669
        }
      ],
      "color": "#6a6983",
      "start_name": "생태학습원",
      "end_name": "대곡공중화장실",
      "length_meter": 2.4,
      "time_minute": 0
    },
    {
      "path_id": 17,
      "path": [
        {
          "lat": 37.394939,
          "lng": 128.05307,
          "ele": 437.669
        },
        {
          "lat": 37.395653,
          "lng": 128.051834,
          "ele": 429.137
        }
      ],
      "color": "#4d814a",
      "start_name": "대곡공중화장실 / 갈림길",
      "end_name": "황장금 소나무",
      "length_meter": 135.0,
      "time_minute": 2
    },
    {
      "path_id": 18,
      "path": [
        {
          "lat": 37.395653,
          "lng": 128.051834,
          "ele": 429.137
        },
        {
          "lat": 37.398239,
          "lng": 128.051239,
          "ele": 422.482
        }
      ],
      "color": "#b2803d",
      "start_name": "황장금 소나무",
      "end_name": "갈림길",
      "length_meter": 292.3,
      "time_minute": 3
    },
    {
      "path_id": 19,
      "path": [
        {
          "lat": 37.398239,
          "lng": 128.051239,
          "ele": 422.482
        },
        {
          "lat": 37.399017,
          "lng": 128.050522,
          "ele": 413.704
        }
      ],
      "color": "#b92969",
      "start_name": "갈림길",
      "end_name": "구룡사",
      "length_meter": 107.2,
      "time_minute": 1
    },
    {
      "path_id": 20,
      "path": [
        {
          "lat": 37.399017,
          "lng": 128.050522,
          "ele": 413.704
        },
        {
          "lat": 37.400009,
          "lng": 128.050323,
          "ele": 400.049
        }
      ],
      "color": "#0d9fb9",
      "start_name": "구룡사",
      "end_name": "구룡사 화장실",
      "length_meter": 111.7,
      "time_minute": 1
    },
    {
      "path_id": 21,
      "path": [
        {
          "lat": 37.400009,
          "lng": 128.050323,
          "ele": 400.049
        },
        {
          "lat": 37.403236,
          "lng": 128.048874,
          "ele": 386.016
        }
      ],
      "color": "#2023c6",
      "start_name": "구룡사 화장실 / 갈림길",
      "end_name": "폭포",
      "length_meter": 392.1,
      "time_minute": 6
    },
    {
      "path_id": 22,
      "path": [
        {
          "lat": 37.403236,
          "lng": 128.048874,
          "ele": 386.016
        },
        {
          "lat": 37.405014,
          "lng": 128.048782,
          "ele": 381.519
        }
      ],
      "color": "#1f2625",
      "start_name": "폭포",
      "end_name": "황장목숲길 시작점",
      "length_meter": 197.9,
      "time_minute": 2
    },
    {
      "path_id": 23,
      "path": [
        {
          "lat": 37.405014,
          "lng": 128.048782,
          "ele": 381.519
        },
        {
          "lat": 37.404438,
          "lng": 128.047241,
          "ele": 334.511
        }
      ],
      "color": "#993b05",
      "start_name": "황장목숲길 시작점",
      "end_name": "구룡사 매표소",
      "length_meter": 150.4,
      "time_minute": 1
    },
    {
      "path_id": 24,
      "path": [
        {
          "lat": 37.404438,
          "lng": 128.047241,
          "ele": 334.511
        },
        {
          "lat": 37.40456,
          "lng": 128.047073,
          "ele": 358.368
        }
      ],
      "color": "#aa2657",
      "start_name": "구룡사 매표소",
      "end_name": "산장",
      "length_meter": 20.1,
      "time_minute": 0
    }
  ]
}