{
  "mnt_id": 26,
  "mnt_name": "도봉산",
  "course_id": 64,
  "max_ele": 699.431,
  "total_length_km": "7.9km",
  "total_time": "1시간 38분",
  "start_name": "계곡",
  "end_name": "북한산 국립공원 도봉사무소",
  "level": "중",
  "course_name": "중턱오름 코스",
  "min_ele": 219.928,
  "track": [
    {
      "path_id": 0,
      "path": [
        {
          "lat": 37.710499,
          "lng": 127.002052,
          "ele": 280.121
        },
        {
          "lat": 37.709305,
          "lng": 127.002731,
          "ele": 294.569
        }
      ],
      "color": "#9cc542",
      "start_name": "계곡 / 등산로와 계곡",
      "end_name": "멋진 바위",
      "length_meter": 145.6,
      "time_minute": 2
    },
    {
      "path_id": 1,
      "path": [
        {
          "lat": 37.709305,
          "lng": 127.002731,
          "ele": 294.569
        },
        {
          "lat": 37.708172,
          "lng": 127.003746,
          "ele": 317.678
        }
      ],
      "color": "#4e972e",
      "start_name": "멋진 바위 / 작은 지류",
      "end_name": "송추폭포",
      "length_meter": 167.9,
      "time_minute": 2
    },
    {
      "path_id": 2,
      "path": [
        {
          "lat": 37.708172,
          "lng": 127.003746,
          "ele": 317.678
        },
        {
          "lat": 37.705196,
          "lng": 127.00647,
          "ele": 388.716
        }
      ],
      "color": "#b05ba2",
      "start_name": "송추폭포 / 송추폭포 중간 지점 / 송추폭포 상단",
      "end_name": "쉼터",
      "length_meter": 410.2,
      "time_minute": 6
    },
    {
      "path_id": 3,
      "path": [
        {
          "lat": 37.705196,
          "lng": 127.00647,
          "ele": 388.716
        },
        {
          "lat": 37.704281,
          "lng": 127.007599,
          "ele": 413.07
        }
      ],
      "color": "#309b1f",
      "start_name": "쉼터 / 계곡 조망",
      "end_name": "바위 쉼터",
      "length_meter": 143.5,
      "time_minute": 2
    },
    {
      "path_id": 4,
      "path": [
        {
          "lat": 37.704281,
          "lng": 127.007599,
          "ele": 413.07
        },
        {
          "lat": 37.702858,
          "lng": 127.008682,
          "ele": 441.607
        }
      ],
      "color": "#17c657",
      "start_name": "바위 쉼터 / 자연 쉼터",
      "end_name": "쉼터",
      "length_meter": 184.8,
      "time_minute": 3
    },
    {
      "path_id": 5,
      "path": [
        {
          "lat": 37.702858,
          "lng": 127.008682,
          "ele": 441.607
        },
        {
          "lat": 37.696724,
          "lng": 127.007156,
          "ele": 617.749
        }
      ],
      "color": "#9e7c61",
      "start_name": "쉼터",
      "end_name": "갈림길",
      "length_meter": 695.2,
      "time_minute": 8
    },
    {
      "path_id": 6,
      "path": [
        {
          "lat": 37.696724,
          "lng": 127.007156,
          "ele": 617.749
        },
        {
          "lat": 37.697327,
          "lng": 127.004036,
          "ele": 659.637
        }
      ],
      "color": "#996e7c",
      "start_name": "갈림길",
      "end_name": "오봉정상 조망",
      "length_meter": 282.6,
      "time_minute": 3
    },
    {
      "path_id": 7,
      "path": [
        {
          "lat": 37.697327,
          "lng": 127.004036,
          "ele": 659.637
        },
        {
          "lat": 37.697334,
          "lng": 127.002457,
          "ele": 640.636
        }
      ],
      "color": "#b965b7",
      "start_name": "오봉정상 조망",
      "end_name": "갈림길",
      "length_meter": 138.9,
      "time_minute": 1
    },
    {
      "path_id": 8,
      "path": [
        {
          "lat": 37.697334,
          "lng": 127.002457,
          "ele": 640.636
        },
        {
          "lat": 37.69632,
          "lng": 127.003227,
          "ele": 573.379
        }
      ],
      "color": "#a311af",
      "start_name": "갈림길",
      "end_name": "자연 쉼터",
      "length_meter": 131.5,
      "time_minute": 1
    },
    {
      "path_id": 9,
      "path": [
        {
          "lat": 37.69632,
          "lng": 127.003227,
          "ele": 573.379
        },
        {
          "lat": 37.697502,
          "lng": 127.003677,
          "ele": 657.741
        }
      ],
      "color": "#319767",
      "start_name": "자연 쉼터",
      "end_name": "오봉정상 조망",
      "length_meter": 137.3,
      "time_minute": 1
    },
    {
      "path_id": 10,
      "path": [
        {
          "lat": 37.697502,
          "lng": 127.003677,
          "ele": 657.741
        },
        {
          "lat": 37.697559,
          "lng": 127.004242,
          "ele": 685.654
        }
      ],
      "color": "#91beb0",
      "start_name": "오봉정상 조망",
      "end_name": "오봉 조망",
      "length_meter": 50.1,
      "time_minute": 0
    },
    {
      "path_id": 11,
      "path": [
        {
          "lat": 37.697559,
          "lng": 127.004242,
          "ele": 685.654
        },
        {
          "lat": 37.696037,
          "lng": 127.00885,
          "ele": 661.154
        }
      ],
      "color": "#9a5563",
      "start_name": "오봉 조망",
      "end_name": "갈림길",
      "length_meter": 439.3,
      "time_minute": 5
    },
    {
      "path_id": 12,
      "path": [
        {
          "lat": 37.696037,
          "lng": 127.00885,
          "ele": 661.154
        },
        {
          "lat": 37.696251,
          "lng": 127.009613,
          "ele": 694.758
        }
      ],
      "color": "#597d2d",
      "start_name": "갈림길",
      "end_name": "릿지구간",
      "length_meter": 71.2,
      "time_minute": 0
    },
    {
      "path_id": 13,
      "path": [
        {
          "lat": 37.696251,
          "lng": 127.009613,
          "ele": 694.758
        },
        {
          "lat": 37.703121,
          "lng": 127.015472,
          "ele": 670.342
        }
      ],
      "color": "#006d69",
      "start_name": "릿지구간 / 갈림길",
      "end_name": "국립공원 안전구급함",
      "length_meter": 932.6,
      "time_minute": 15
    },
    {
      "path_id": 14,
      "path": [
        {
          "lat": 37.703121,
          "lng": 127.015472,
          "ele": 670.342
        },
        {
          "lat": 37.707142,
          "lng": 127.019493,
          "ele": 655.333
        }
      ],
      "color": "#089282",
      "start_name": "국립공원 안전구급함 / 조망터",
      "end_name": "포대능선 조망",
      "length_meter": 573.8,
      "time_minute": 9
    },
    {
      "path_id": 15,
      "path": [
        {
          "lat": 37.707142,
          "lng": 127.019493,
          "ele": 655.333
        },
        {
          "lat": 37.708126,
          "lng": 127.019569,
          "ele": 661.221
        }
      ],
      "color": "#2a6b35",
      "start_name": "포대능선 조망 / 갈림길",
      "end_name": "포대산불감시초소",
      "length_meter": 116.3,
      "time_minute": 1
    },
    {
      "path_id": 16,
      "path": [
        {
          "lat": 37.708126,
          "lng": 127.019569,
          "ele": 661.221
        },
        {
          "lat": 37.708282,
          "lng": 127.019493,
          "ele": 661.94
        }
      ],
      "color": "#338ca5",
      "start_name": "포대산불감시초소",
      "end_name": "쉼터",
      "length_meter": 18.6,
      "time_minute": 0
    },
    {
      "path_id": 17,
      "path": [
        {
          "lat": 37.708282,
          "lng": 127.019493,
          "ele": 661.94
        },
        {
          "lat": 37.71043,
          "lng": 127.016701,
          "ele": 615.724
        }
      ],
      "color": "#777e2f",
      "start_name": "쉼터 / 갈림길",
      "end_name": "조망터",
      "length_meter": 344.2,
      "time_minute": 5
    },
    {
      "path_id": 18,
      "path": [
        {
          "lat": 37.71043,
          "lng": 127.016701,
          "ele": 615.724
        },
        {
          "lat": 37.711773,
          "lng": 127.016136,
          "ele": 549.837
        }
      ],
      "color": "#c40272",
      "start_name": "조망터 / 멋진 바위",
      "end_name": "쉼터",
      "length_meter": 157.9,
      "time_minute": 2
    },
    {
      "path_id": 19,
      "path": [
        {
          "lat": 37.711773,
          "lng": 127.016136,
          "ele": 549.837
        },
        {
          "lat": 37.713203,
          "lng": 127.014412,
          "ele": 516.451
        }
      ],
      "color": "#03879b",
      "start_name": "쉼터",
      "end_name": "사패산 조망",
      "length_meter": 219.7,
      "time_minute": 2
    },
    {
      "path_id": 20,
      "path": [
        {
          "lat": 37.713203,
          "lng": 127.014412,
          "ele": 516.451
        },
        {
          "lat": 37.714211,
          "lng": 127.013428,
          "ele": 480.358
        }
      ],
      "color": "#447605",
      "start_name": "사패산 조망",
      "end_name": "갈림길",
      "length_meter": 141.6,
      "time_minute": 1
    },
    {
      "path_id": 21,
      "path": [
        {
          "lat": 37.714211,
          "lng": 127.013428,
          "ele": 480.358
        },
        {
          "lat": 37.717216,
          "lng": 127.014191,
          "ele": 519.087
        }
      ],
      "color": "#70b68c",
      "start_name": "갈림길 / 산불진화장비 보관함 / 119 구급함",
      "end_name": "쉼터",
      "length_meter": 343.7,
      "time_minute": 5
    },
    {
      "path_id": 22,
      "path": [
        {
          "lat": 37.717216,
          "lng": 127.014191,
          "ele": 519.087
        },
        {
          "lat": 37.719173,
          "lng": 127.014076,
          "ele": 496.224
        }
      ],
      "color": "#b14c3c",
      "start_name": "쉼터",
      "end_name": "갈림길",
      "length_meter": 217.8,
      "time_minute": 2
    },
    {
      "path_id": 23,
      "path": [
        {
          "lat": 37.719173,
          "lng": 127.014076,
          "ele": 496.224
        },
        {
          "lat": 37.720989,
          "lng": 127.012497,
          "ele": 514.815
        }
      ],
      "color": "#99b474",
      "start_name": "갈림길 / 119 구급함",
      "end_name": "자연 쉼터",
      "length_meter": 245.2,
      "time_minute": 4
    },
    {
      "path_id": 24,
      "path": [
        {
          "lat": 37.720989,
          "lng": 127.012497,
          "ele": 514.815
        },
        {
          "lat": 37.721077,
          "lng": 127.012466,
          "ele": 517.351
        }
      ],
      "color": "#a22f4c",
      "start_name": "자연 쉼터",
      "end_name": "사패산 정상 조망",
      "length_meter": 10.2,
      "time_minute": 0
    },
    {
      "path_id": 25,
      "path": [
        {
          "lat": 37.721077,
          "lng": 127.012466,
          "ele": 517.351
        },
        {
          "lat": 37.7197,
          "lng": 127.008041,
          "ele": 360.38
        }
      ],
      "color": "#069768",
      "start_name": "사패산 정상 조망 / 갈림길",
      "end_name": "계곡",
      "length_meter": 433.1,
      "time_minute": 7
    },
    {
      "path_id": 26,
      "path": [
        {
          "lat": 37.7197,
          "lng": 127.008041,
          "ele": 360.38
        },
        {
          "lat": 37.719658,
          "lng": 127.006073,
          "ele": 331.533
        }
      ],
      "color": "#78396e",
      "start_name": "계곡 / 쉼터",
      "end_name": "계곡",
      "length_meter": 173.2,
      "time_minute": 2
    },
    {
      "path_id": 27,
      "path": [
        {
          "lat": 37.719658,
          "lng": 127.006073,
          "ele": 331.533
        },
        {
          "lat": 37.719788,
          "lng": 127.005112,
          "ele": 314.592
        }
      ],
      "color": "#571571",
      "start_name": "계곡 / 쉼터",
      "end_name": "산불진화장비 보관함",
      "length_meter": 87.2,
      "time_minute": 1
    },
    {
      "path_id": 28,
      "path": [
        {
          "lat": 37.719788,
          "lng": 127.005112,
          "ele": 314.592
        },
        {
          "lat": 37.719734,
          "lng": 127.004333,
          "ele": 283.433
        }
      ],
      "color": "#43c299",
      "start_name": "산불진화장비 보관함 / 원각폭포 / 아래 원각폭포",
      "end_name": "산행 입구",
      "length_meter": 112.8,
      "time_minute": 1
    },
    {
      "path_id": 29,
      "path": [
        {
          "lat": 37.719734,
          "lng": 127.004333,
          "ele": 283.433
        },
        {
          "lat": 37.720062,
          "lng": 127.003632,
          "ele": 270.932
        }
      ],
      "color": "#347734",
      "start_name": "산행 입구",
      "end_name": "원각사",
      "length_meter": 71.6,
      "time_minute": 0
    },
    {
      "path_id": 30,
      "path": [
        {
          "lat": 37.720062,
          "lng": 127.003632,
          "ele": 270.932
        },
        {
          "lat": 37.721695,
          "lng": 126.996773,
          "ele": 219.928
        }
      ],
      "color": "#89937a",
      "start_name": "원각사",
      "end_name": "갈림길",
      "length_meter": 630.0,
      "time_minute": 7
    },
    {
      "path_id": 31,
      "path": [
        {
          "lat": 37.721695,
          "lng": 126.996773,
          "ele": 219.928
        },
        {
          "lat": 37.721359,
          "lng": 126.996117,
          "ele": 223.345
        }
      ],
      "color": "#aa1f07",
      "start_name": "갈림길",
      "end_name": "북한산 국립공원 도봉사무소",
      "length_meter": 68.7,
      "time_minute": 0
    }
  ]
}