{
  "mnt_id": 17,
  "mnt_name": "남산",
  "course_id": 40,
  "max_ele": 539.362,
  "total_length_km": "5.6km",
  "total_time": "1시간 9분",
  "start_name": "삼릉곡 제1사지 탑재와 불상",
  "end_name": "용장골계곡",
  "level": "중",
  "course_name": "중턱오름 코스",
  "min_ele": 149.661,
  "track": [
    {
      "path_id": 0,
      "path": [
        {
          "lat": 35.796986,
          "lng": 129.21257,
          "ele": 149.661
        },
        {
          "lat": 35.780388,
          "lng": 129.23027,
          "ele": 370.095
        }
      ],
      "color": "#2e07b6",
      "start_name": "삼릉곡 제1사지 탑재와 불상",
      "end_name": "갈림길",
      "length_meter": 2440.3,
      "time_minute": 30
    },
    {
      "path_id": 1,
      "path": [
        {
          "lat": 35.780388,
          "lng": 129.23027,
          "ele": 370.095
        },
        {
          "lat": 35.774063,
          "lng": 129.231696,
          "ele": 486.219
        }
      ],
      "color": "#870a37",
      "start_name": "갈림길",
      "end_name": "웨이포인트 35",
      "length_meter": 715.0,
      "time_minute": 8
    },
    {
      "path_id": 2,
      "path": [
        {
          "lat": 35.774063,
          "lng": 129.231696,
          "ele": 486.219
        },
        {
          "lat": 35.773522,
          "lng": 129.231506,
          "ele": 490.761
        }
      ],
      "color": "#54b849",
      "start_name": "웨이포인트 35 / 데크 상단",
      "end_name": "웨이포인트 37",
      "length_meter": 65.1,
      "time_minute": 1
    },
    {
      "path_id": 3,
      "path": [
        {
          "lat": 35.773522,
          "lng": 129.231506,
          "ele": 490.761
        },
        {
          "lat": 35.772432,
          "lng": 129.231913,
          "ele": 473.162
        }
      ],
      "color": "#31bf24",
      "start_name": "웨이포인트 37",
      "end_name": "웨이포인트 38",
      "length_meter": 126.6,
      "time_minute": 1
    },
    {
      "path_id": 4,
      "path": [
        {
          "lat": 35.772432,
          "lng": 129.231913,
          "ele": 473.162
        },
        {
          "lat": 35.772432,
          "lng": 129.231913,
          "ele": 473.162
        }
      ],
      "color": "#9e0e19",
      "start_name": "웨이포인트 38",
      "end_name": "웨이포인트 39",
      "length_meter": 0.0,
      "time_minute": 0
    },
    {
      "path_id": 5,
      "path": [
        {
          "lat": 35.772432,
          "lng": 129.231913,
          "ele": 473.162
        },
        {
          "lat": 35.771954,
          "lng": 129.232864,
          "ele": 435.28
        }
      ],
      "color": "#9d6276",
      "start_name": "웨이포인트 39",
      "end_name": "갈림길",
      "length_meter": 100.9,
      "time_minute": 1
    },
    {
      "path_id": 6,
      "path": [
        {
          "lat": 35.771954,
          "lng": 129.232864,
          "ele": 435.28
        },
        {
          "lat": 35.767544,
          "lng": 129.225311,
          "ele": 539.362
        }
      ],
      "color": "#575e2a",
      "start_name": "갈림길",
      "end_name": "고위봉",
      "length_meter": 839.5,
      "time_minute": 10
    },
    {
      "path_id": 7,
      "path": [
        {
          "lat": 35.767544,
          "lng": 129.225311,
          "ele": 539.362
        },
        {
          "lat": 35.768875,
          "lng": 129.224792,
          "ele": 490.941
        }
      ],
      "color": "#31b370",
      "start_name": "고위봉 / 갈림길 / 웨이포인트 46",
      "end_name": "조망터",
      "length_meter": 166.5,
      "time_minute": 2
    },
    {
      "path_id": 8,
      "path": [
        {
          "lat": 35.768875,
          "lng": 129.224792,
          "ele": 490.941
        },
        {
          "lat": 35.769952,
          "lng": 129.223797,
          "ele": 442.644
        }
      ],
      "color": "#673736",
      "start_name": "조망터 / 암릉구간",
      "end_name": "웨이포인트 49",
      "length_meter": 154.3,
      "time_minute": 2
    },
    {
      "path_id": 9,
      "path": [
        {
          "lat": 35.769952,
          "lng": 129.223797,
          "ele": 442.644
        },
        {
          "lat": 35.77205,
          "lng": 129.221728,
          "ele": 399.122
        }
      ],
      "color": "#500d31",
      "start_name": "웨이포인트 49 / 웨이포인트 50 / 웨이포인트 51 / 웨이포인트 52",
      "end_name": "웨이포인트 53",
      "length_meter": 326.3,
      "time_minute": 5
    },
    {
      "path_id": 10,
      "path": [
        {
          "lat": 35.77205,
          "lng": 129.221728,
          "ele": 399.122
        },
        {
          "lat": 35.773414,
          "lng": 129.220211,
          "ele": 352.589
        }
      ],
      "color": "#187907",
      "start_name": "웨이포인트 53 / 웨이포인트 54 / 웨이포인트 55",
      "end_name": "웨이포인트 57",
      "length_meter": 204.3,
      "time_minute": 3
    },
    {
      "path_id": 11,
      "path": [
        {
          "lat": 35.773414,
          "lng": 129.220211,
          "ele": 352.589
        },
        {
          "lat": 35.774658,
          "lng": 129.215439,
          "ele": 168.104
        }
      ],
      "color": "#c6987b",
      "start_name": "웨이포인트 57 / 웨이포인트 58",
      "end_name": "용장골계곡",
      "length_meter": 452.2,
      "time_minute": 7
    }
  ]
}