{
  "mnt_id": 46,
  "mnt_name": "북한산",
  "course_id": 119,
  "max_ele": 603.927,
  "total_length_km": "6.9km",
  "total_time": "1시간 26분",
  "start_name": "북한산성입구",
  "end_name": "북한산국립공원 북한산성분소",
  "level": "중",
  "course_name": "중턱오름 코스",
  "min_ele": 77.054,
  "track": [
    {
      "path_id": 0,
      "path": [
        {
          "lat": 37.65799,
          "lng": 126.945274,
          "ele": 77.915
        },
        {
          "lat": 37.658024,
          "lng": 126.946571,
          "ele": 77.054
        }
      ],
      "color": "#914402",
      "start_name": "북한산성입구 / 남도집",
      "end_name": "쉼터",
      "length_meter": 115.7,
      "time_minute": 1
    },
    {
      "path_id": 1,
      "path": [
        {
          "lat": 37.658024,
          "lng": 126.946571,
          "ele": 77.054
        },
        {
          "lat": 37.656796,
          "lng": 126.94754,
          "ele": 82.582
        }
      ],
      "color": "#4dc248",
      "start_name": "쉼터",
      "end_name": "매점",
      "length_meter": 161.0,
      "time_minute": 2
    },
    {
      "path_id": 2,
      "path": [
        {
          "lat": 37.656796,
          "lng": 126.94754,
          "ele": 82.582
        },
        {
          "lat": 37.655956,
          "lng": 126.947792,
          "ele": 88.303
        }
      ],
      "color": "#7a331c",
      "start_name": "매점 / 상가(음식점) 주차장",
      "end_name": "가야밀냉면",
      "length_meter": 101.1,
      "time_minute": 1
    },
    {
      "path_id": 3,
      "path": [
        {
          "lat": 37.655956,
          "lng": 126.947792,
          "ele": 88.303
        },
        {
          "lat": 37.655216,
          "lng": 126.948471,
          "ele": 91.529
        }
      ],
      "color": "#380d05",
      "start_name": "가야밀냉면",
      "end_name": "북한산손칼국수",
      "length_meter": 101.7,
      "time_minute": 1
    },
    {
      "path_id": 4,
      "path": [
        {
          "lat": 37.655216,
          "lng": 126.948471,
          "ele": 91.529
        },
        {
          "lat": 37.655128,
          "lng": 126.949097,
          "ele": 91.571
        }
      ],
      "color": "#094562",
      "start_name": "북한산손칼국수 / 북한산성탐방로 입구",
      "end_name": "자전거 거치대.",
      "length_meter": 57.1,
      "time_minute": 0
    },
    {
      "path_id": 5,
      "path": [
        {
          "lat": 37.655128,
          "lng": 126.949097,
          "ele": 91.571
        },
        {
          "lat": 37.654957,
          "lng": 126.949776,
          "ele": 93.721
        }
      ],
      "color": "#755d14",
      "start_name": "자전거 거치대. / 갈림길",
      "end_name": "쉼터",
      "length_meter": 68.4,
      "time_minute": 1
    },
    {
      "path_id": 6,
      "path": [
        {
          "lat": 37.654957,
          "lng": 126.949776,
          "ele": 93.721
        },
        {
          "lat": 37.654655,
          "lng": 126.950783,
          "ele": 101.02
        }
      ],
      "color": "#521769",
      "start_name": "쉼터 / 스마일 북한산 명품 꽈배기",
      "end_name": "쉼터",
      "length_meter": 95.3,
      "time_minute": 1
    },
    {
      "path_id": 7,
      "path": [
        {
          "lat": 37.654655,
          "lng": 126.950783,
          "ele": 101.02
        },
        {
          "lat": 37.650135,
          "lng": 126.954033,
          "ele": 229.836
        }
      ],
      "color": "#1ca307",
      "start_name": "쉼터",
      "end_name": "갈림길",
      "length_meter": 578.3,
      "time_minute": 7
    },
    {
      "path_id": 8,
      "path": [
        {
          "lat": 37.650135,
          "lng": 126.954033,
          "ele": 229.836
        },
        {
          "lat": 37.649448,
          "lng": 126.954735,
          "ele": 267.926
        }
      ],
      "color": "#865876",
      "start_name": "갈림길",
      "end_name": "암벽 경사로 시작점",
      "length_meter": 98.3,
      "time_minute": 1
    },
    {
      "path_id": 9,
      "path": [
        {
          "lat": 37.649448,
          "lng": 126.954735,
          "ele": 267.926
        },
        {
          "lat": 37.64946,
          "lng": 126.956139,
          "ele": 324.427
        }
      ],
      "color": "#45298c",
      "start_name": "암벽 경사로 시작점",
      "end_name": "쉼터",
      "length_meter": 123.6,
      "time_minute": 1
    },
    {
      "path_id": 10,
      "path": [
        {
          "lat": 37.64946,
          "lng": 126.956139,
          "ele": 324.427
        },
        {
          "lat": 37.649426,
          "lng": 126.957321,
          "ele": 403.198
        }
      ],
      "color": "#9f7138",
      "start_name": "쉼터 / 암릉 슬랩 / 쉼터 / 철계단",
      "end_name": "토끼바위",
      "length_meter": 109.7,
      "time_minute": 1
    },
    {
      "path_id": 11,
      "path": [
        {
          "lat": 37.649426,
          "lng": 126.957321,
          "ele": 403.198
        },
        {
          "lat": 37.648991,
          "lng": 126.958794,
          "ele": 469.4
        }
      ],
      "color": "#5b0384",
      "start_name": "토끼바위 / 쉼터 / 성랑지 / 쉼터",
      "end_name": "의상봉 오르는 등산로",
      "length_meter": 143.2,
      "time_minute": 2
    },
    {
      "path_id": 12,
      "path": [
        {
          "lat": 37.648991,
          "lng": 126.958794,
          "ele": 469.4
        },
        {
          "lat": 37.648514,
          "lng": 126.959869,
          "ele": 516.753
        }
      ],
      "color": "#a6876b",
      "start_name": "의상봉 오르는 등산로 / 쉼터",
      "end_name": "의상대",
      "length_meter": 108.5,
      "time_minute": 1
    },
    {
      "path_id": 13,
      "path": [
        {
          "lat": 37.648514,
          "lng": 126.959869,
          "ele": 516.753
        },
        {
          "lat": 37.648125,
          "lng": 126.960564,
          "ele": 519.212
        }
      ],
      "color": "#4d44a3",
      "start_name": "의상대 / 의상봉 / 안전 쉼터",
      "end_name": "쉼터",
      "length_meter": 80.4,
      "time_minute": 1
    },
    {
      "path_id": 14,
      "path": [
        {
          "lat": 37.648125,
          "lng": 126.960564,
          "ele": 519.212
        },
        {
          "lat": 37.646969,
          "lng": 126.960739,
          "ele": 478.029
        }
      ],
      "color": "#666556",
      "start_name": "쉼터 / 멋진 소나무와 용출봉 조망",
      "end_name": "성랑지",
      "length_meter": 129.6,
      "time_minute": 1
    },
    {
      "path_id": 15,
      "path": [
        {
          "lat": 37.646969,
          "lng": 126.960739,
          "ele": 478.029
        },
        {
          "lat": 37.646217,
          "lng": 126.961067,
          "ele": 463.657
        }
      ],
      "color": "#3bae8e",
      "start_name": "성랑지",
      "end_name": "가사당암문",
      "length_meter": 88.5,
      "time_minute": 1
    },
    {
      "path_id": 16,
      "path": [
        {
          "lat": 37.646217,
          "lng": 126.961067,
          "ele": 463.657
        },
        {
          "lat": 37.645008,
          "lng": 126.961655,
          "ele": 497.59
        }
      ],
      "color": "#588752",
      "start_name": "가사당암문 / 갈림길 / 성랑지",
      "end_name": "용출봉 오르는 암릉길",
      "length_meter": 151.9,
      "time_minute": 2
    },
    {
      "path_id": 17,
      "path": [
        {
          "lat": 37.645008,
          "lng": 126.961655,
          "ele": 497.59
        },
        {
          "lat": 37.643822,
          "lng": 126.961876,
          "ele": 580.979
        }
      ],
      "color": "#4b0d63",
      "start_name": "용출봉 오르는 암릉길 / 멋진 바위 / 쉼터",
      "end_name": "용출봉",
      "length_meter": 141.3,
      "time_minute": 2
    },
    {
      "path_id": 18,
      "path": [
        {
          "lat": 37.643822,
          "lng": 126.961876,
          "ele": 580.979
        },
        {
          "lat": 37.64344,
          "lng": 126.962883,
          "ele": 567.317
        }
      ],
      "color": "#55a668",
      "start_name": "용출봉 / 국립공원 구급함 / 조망터",
      "end_name": "할미바위",
      "length_meter": 102.6,
      "time_minute": 1
    },
    {
      "path_id": 19,
      "path": [
        {
          "lat": 37.64344,
          "lng": 126.962883,
          "ele": 567.317
        },
        {
          "lat": 37.643215,
          "lng": 126.964104,
          "ele": 585.989
        }
      ],
      "color": "#4b6e7e",
      "start_name": "할미바위 / 쉼터",
      "end_name": "낙뢰 발생시 대처 요령",
      "length_meter": 110.5,
      "time_minute": 1
    },
    {
      "path_id": 20,
      "path": [
        {
          "lat": 37.643215,
          "lng": 126.964104,
          "ele": 585.989
        },
        {
          "lat": 37.642368,
          "lng": 126.965599,
          "ele": 599.093
        }
      ],
      "color": "#4502b8",
      "start_name": "낙뢰 발생시 대처 요령 / 용혈봉 / 쉼터",
      "end_name": "증취봉",
      "length_meter": 166.6,
      "time_minute": 2
    },
    {
      "path_id": 21,
      "path": [
        {
          "lat": 37.642368,
          "lng": 126.965599,
          "ele": 599.093
        },
        {
          "lat": 37.641464,
          "lng": 126.966049,
          "ele": 573.194
        }
      ],
      "color": "#06437d",
      "start_name": "증취봉 / 부왕동여장",
      "end_name": "쉼터",
      "length_meter": 110.8,
      "time_minute": 1
    },
    {
      "path_id": 22,
      "path": [
        {
          "lat": 37.641464,
          "lng": 126.966049,
          "ele": 573.194
        },
        {
          "lat": 37.641281,
          "lng": 126.966377,
          "ele": 549.729
        }
      ],
      "color": "#bc7fc6",
      "start_name": "쉼터 / 멋진 바위 / 쉼터 / 우람한 바위들",
      "end_name": "성랑지",
      "length_meter": 62.8,
      "time_minute": 0
    },
    {
      "path_id": 23,
      "path": [
        {
          "lat": 37.641281,
          "lng": 126.966377,
          "ele": 549.729
        },
        {
          "lat": 37.640671,
          "lng": 126.966942,
          "ele": 541.444
        }
      ],
      "color": "#6568b0",
      "start_name": "성랑지 / 갈림길",
      "end_name": "성랑지",
      "length_meter": 84.7,
      "time_minute": 1
    },
    {
      "path_id": 24,
      "path": [
        {
          "lat": 37.640671,
          "lng": 126.966942,
          "ele": 541.444
        },
        {
          "lat": 37.640404,
          "lng": 126.967201,
          "ele": 533.887
        }
      ],
      "color": "#3ca0c6",
      "start_name": "성랑지",
      "end_name": "부왕동암문",
      "length_meter": 37.4,
      "time_minute": 0
    },
    {
      "path_id": 25,
      "path": [
        {
          "lat": 37.640404,
          "lng": 126.967201,
          "ele": 533.887
        },
        {
          "lat": 37.641018,
          "lng": 126.969109,
          "ele": 481.739
        }
      ],
      "color": "#8f7188",
      "start_name": "부왕동암문 / 갈림길",
      "end_name": "쉼터",
      "length_meter": 187.9,
      "time_minute": 3
    },
    {
      "path_id": 26,
      "path": [
        {
          "lat": 37.641018,
          "lng": 126.969109,
          "ele": 481.739
        },
        {
          "lat": 37.64262,
          "lng": 126.970757,
          "ele": 422.962
        }
      ],
      "color": "#430198",
      "start_name": "쉼터",
      "end_name": "갈림길",
      "length_meter": 229.8,
      "time_minute": 2
    },
    {
      "path_id": 27,
      "path": [
        {
          "lat": 37.64262,
          "lng": 126.970757,
          "ele": 422.962
        },
        {
          "lat": 37.642338,
          "lng": 126.971344,
          "ele": 444.1
        }
      ],
      "color": "#b03c0a",
      "start_name": "갈림길 / 느티나무 밑 쉼터",
      "end_name": "부왕사지",
      "length_meter": 90.8,
      "time_minute": 1
    },
    {
      "path_id": 28,
      "path": [
        {
          "lat": 37.642338,
          "lng": 126.971344,
          "ele": 444.1
        },
        {
          "lat": 37.645004,
          "lng": 126.97287,
          "ele": 374.47
        }
      ],
      "color": "#c41983",
      "start_name": "부왕사지 / 부왕사지 느티나무 / 노루귀 군락지",
      "end_name": "계곡",
      "length_meter": 372.9,
      "time_minute": 6
    },
    {
      "path_id": 29,
      "path": [
        {
          "lat": 37.645004,
          "lng": 126.97287,
          "ele": 374.47
        },
        {
          "lat": 37.646542,
          "lng": 126.973145,
          "ele": 350.85
        }
      ],
      "color": "#046483",
      "start_name": "계곡",
      "end_name": "백운동 계곡",
      "length_meter": 172.7,
      "time_minute": 2
    },
    {
      "path_id": 30,
      "path": [
        {
          "lat": 37.646542,
          "lng": 126.973145,
          "ele": 350.85
        },
        {
          "lat": 37.648384,
          "lng": 126.972618,
          "ele": 326.929
        }
      ],
      "color": "#317877",
      "start_name": "백운동 계곡",
      "end_name": "갈림길",
      "length_meter": 210.0,
      "time_minute": 2
    },
    {
      "path_id": 31,
      "path": [
        {
          "lat": 37.648384,
          "lng": 126.972618,
          "ele": 326.929
        },
        {
          "lat": 37.649384,
          "lng": 126.97303,
          "ele": 354.542
        }
      ],
      "color": "#692932",
      "start_name": "갈림길 / 공덕탑",
      "end_name": "노적사",
      "length_meter": 134.3,
      "time_minute": 1
    },
    {
      "path_id": 32,
      "path": [
        {
          "lat": 37.649384,
          "lng": 126.97303,
          "ele": 354.542
        },
        {
          "lat": 37.648598,
          "lng": 126.971008,
          "ele": 311.313
        }
      ],
      "color": "#160323",
      "start_name": "노적사 / 범종각 / 약수터",
      "end_name": "계곡, 소",
      "length_meter": 231.0,
      "time_minute": 3
    },
    {
      "path_id": 33,
      "path": [
        {
          "lat": 37.648598,
          "lng": 126.971008,
          "ele": 311.313
        },
        {
          "lat": 37.648773,
          "lng": 126.969559,
          "ele": 291.95
        }
      ],
      "color": "#35a894",
      "start_name": "계곡, 소 / 중성문",
      "end_name": "노적동계곡",
      "length_meter": 129.4,
      "time_minute": 2
    },
    {
      "path_id": 34,
      "path": [
        {
          "lat": 37.648773,
          "lng": 126.969559,
          "ele": 291.95
        },
        {
          "lat": 37.650017,
          "lng": 126.966888,
          "ele": 254.54
        }
      ],
      "color": "#b25337",
      "start_name": "노적동계곡",
      "end_name": "갈림길",
      "length_meter": 272.8,
      "time_minute": 3
    },
    {
      "path_id": 35,
      "path": [
        {
          "lat": 37.650017,
          "lng": 126.966888,
          "ele": 254.54
        },
        {
          "lat": 37.652088,
          "lng": 126.963394,
          "ele": 219.401
        }
      ],
      "color": "#9d3430",
      "start_name": "갈림길 / 법용사 / 계곡",
      "end_name": "북한산국립공원 자생식물원",
      "length_meter": 386.8,
      "time_minute": 6
    },
    {
      "path_id": 36,
      "path": [
        {
          "lat": 37.652088,
          "lng": 126.963394,
          "ele": 219.401
        },
        {
          "lat": 37.652363,
          "lng": 126.962395,
          "ele": 213.955
        }
      ],
      "color": "#837c55",
      "start_name": "북한산국립공원 자생식물원",
      "end_name": "북한동역사관",
      "length_meter": 93.1,
      "time_minute": 1
    },
    {
      "path_id": 37,
      "path": [
        {
          "lat": 37.652363,
          "lng": 126.962395,
          "ele": 213.955
        },
        {
          "lat": 37.652897,
          "lng": 126.961624,
          "ele": 213.971
        }
      ],
      "color": "#247b03",
      "start_name": "북한동역사관",
      "end_name": "갈림길",
      "length_meter": 90.2,
      "time_minute": 1
    },
    {
      "path_id": 38,
      "path": [
        {
          "lat": 37.652897,
          "lng": 126.961624,
          "ele": 213.971
        },
        {
          "lat": 37.653843,
          "lng": 126.959312,
          "ele": 200.553
        }
      ],
      "color": "#3c8324",
      "start_name": "갈림길",
      "end_name": "무량사",
      "length_meter": 229.1,
      "time_minute": 2
    },
    {
      "path_id": 39,
      "path": [
        {
          "lat": 37.653843,
          "lng": 126.959312,
          "ele": 200.553
        },
        {
          "lat": 37.65284,
          "lng": 126.954765,
          "ele": 169.837
        }
      ],
      "color": "#1e6cb7",
      "start_name": "무량사",
      "end_name": "갈림길",
      "length_meter": 415.5,
      "time_minute": 5
    },
    {
      "path_id": 40,
      "path": [
        {
          "lat": 37.65284,
          "lng": 126.954765,
          "ele": 169.837
        },
        {
          "lat": 37.651855,
          "lng": 126.953415,
          "ele": 168.04
        }
      ],
      "color": "#b2b267",
      "start_name": "갈림길",
      "end_name": "약수터",
      "length_meter": 161.6,
      "time_minute": 2
    },
    {
      "path_id": 41,
      "path": [
        {
          "lat": 37.651855,
          "lng": 126.953415,
          "ele": 168.04
        },
        {
          "lat": 37.654465,
          "lng": 126.950996,
          "ele": 108.309
        }
      ],
      "color": "#6367a0",
      "start_name": "약수터 / 갈림길",
      "end_name": "북한산국립공원 북한산성분소",
      "length_meter": 407.0,
      "time_minute": 6
    }
  ]
}